[
  {
    "icao": "FR-0009",
    "name": "Altisurface Notre-Dame-des-Neiges-Abbaye",
    "lat": 44.601293,
    "lng": 3.927773,
    "elevationFt": 3760,
    "runways": [
      {
        "ident": "17",
        "headingMag": 170,
        "lengthFt": 656,
        "surface": "grass"
      },
      {
        "ident": "35",
        "headingMag": 350,
        "lengthFt": 656,
        "surface": "grass"
      }
    ],
    "frequencies": [],
    "updatedAt": "2026-06-21T11:28:06.720Z"
  },
  {
    "icao": "FR-0020",
    "name": "Escary Aramits Altiport",
    "lat": 43.121208,
    "lng": -0.742491,
    "elevationFt": 1076,
    "runways": [
      {
        "ident": "05H",
        "headingMag": 50,
        "lengthFt": 82,
        "surface": "grass"
      },
      {
        "ident": "23H",
        "headingMag": 230,
        "lengthFt": 82,
        "surface": "grass"
      },
      {
        "ident": "09",
        "headingMag": 90,
        "lengthFt": 1050,
        "surface": "grass"
      },
      {
        "ident": "27",
        "headingMag": 270,
        "lengthFt": 1050,
        "surface": "grass"
      }
    ],
    "frequencies": [],
    "updatedAt": "2026-06-21T11:28:06.720Z"
  },
  {
    "icao": "LFNN",
    "name": "Narbonne Airfield",
    "lat": 43.194168,
    "lng": 3.051667,
    "elevationFt": 10,
    "runways": [],
    "frequencies": [],
    "updatedAt": "2026-06-21T11:28:06.720Z"
  },
  {
    "icao": "FR-0158",
    "name": "Bournizeaux Airfield",
    "lat": 46.88053,
    "lng": -0.28448,
    "elevationFt": 430,
    "runways": [
      {
        "ident": "04",
        "headingMag": 40,
        "lengthFt": 1575,
        "surface": "grass"
      },
      {
        "ident": "22",
        "headingMag": 220,
        "lengthFt": 1575,
        "surface": "grass"
      },
      {
        "ident": "08",
        "headingMag": 80,
        "lengthFt": 3675,
        "surface": "grass"
      },
      {
        "ident": "26",
        "headingMag": 260,
        "lengthFt": 3675,
        "surface": "grass"
      },
      {
        "ident": "12",
        "headingMag": 120,
        "lengthFt": 2133,
        "surface": "grass"
      },
      {
        "ident": "30",
        "headingMag": 300,
        "lengthFt": 2133,
        "surface": "grass"
      }
    ],
    "frequencies": [
      {
        "type": "A/A",
        "description": "",
        "frequencyMhz": 123.5
      }
    ],
    "updatedAt": "2026-06-21T11:28:06.720Z"
  },
  {
    "icao": "FR-0183",
    "name": "Aérodrome de Monhoudou",
    "lat": 48.2758993,
    "lng": 0.3257194,
    "elevationFt": 0,
    "runways": [],
    "frequencies": [],
    "updatedAt": "2026-06-21T11:28:06.720Z"
  },
  {
    "icao": "LFKR",
    "name": "Saint-Rémy-de-Maurienne Airfield",
    "lat": 45.376718,
    "lng": 6.27692,
    "elevationFt": 1399,
    "runways": [],
    "frequencies": [],
    "updatedAt": "2026-06-21T11:28:06.720Z"
  },
  {
    "icao": "FR-0246",
    "name": "Altisurface d'Aleu",
    "lat": 42.900002,
    "lng": 1.275,
    "elevationFt": 3445,
    "runways": [],
    "frequencies": [],
    "updatedAt": "2026-06-21T11:28:06.720Z"
  },
  {
    "icao": "FR-0247",
    "name": "Artigues Altisurface",
    "lat": 43.071944,
    "lng": -0.003333,
    "elevationFt": 2450,
    "runways": [
      {
        "ident": "02",
        "headingMag": 20,
        "lengthFt": 910,
        "surface": "grass"
      },
      {
        "ident": "20",
        "headingMag": 200,
        "lengthFt": 910,
        "surface": "grass"
      }
    ],
    "frequencies": [],
    "updatedAt": "2026-06-21T11:28:06.720Z"
  },
  {
    "icao": "FR-0248",
    "name": "Bacaneres Altiport",
    "lat": 42.838229,
    "lng": 0.658901,
    "elevationFt": 6532,
    "runways": [],
    "frequencies": [],
    "updatedAt": "2026-06-21T11:28:06.720Z"
  },
  {
    "icao": "FR-0249",
    "name": "Altisurface de Balesta Nature",
    "lat": 43.153646,
    "lng": 0.995063,
    "elevationFt": 1394,
    "runways": [],
    "frequencies": [],
    "updatedAt": "2026-06-21T11:28:06.720Z"
  },
  {
    "icao": "FR-0250",
    "name": "Cabaliros Altiport",
    "lat": 42.952496,
    "lng": -0.133166,
    "elevationFt": 5724,
    "runways": [],
    "frequencies": [],
    "updatedAt": "2026-06-21T11:28:06.720Z"
  },
  {
    "icao": "FR-0251",
    "name": "Altisurface de Cap De Barres",
    "lat": 42.864034,
    "lng": 0.516347,
    "elevationFt": 5798,
    "runways": [],
    "frequencies": [],
    "updatedAt": "2026-06-21T11:28:06.720Z"
  },
  {
    "icao": "FR-0252",
    "name": "Altisurface de Cap De Pouy",
    "lat": 42.784721,
    "lng": 0.545,
    "elevationFt": 5905,
    "runways": [],
    "frequencies": [],
    "updatedAt": "2026-06-21T11:28:06.720Z"
  },
  {
    "icao": "FR-0253",
    "name": "Altisurface de Castillon De La Laquette",
    "lat": 42.895557,
    "lng": 0.100556,
    "elevationFt": 5413,
    "runways": [],
    "frequencies": [],
    "updatedAt": "2026-06-21T11:28:06.720Z"
  },
  {
    "icao": "FR-0254",
    "name": "Cipières Alpes d'Azur Ultralight Airfield",
    "lat": 43.779447,
    "lng": 6.865206,
    "elevationFt": 3789,
    "runways": [],
    "frequencies": [],
    "updatedAt": "2026-06-21T11:28:06.720Z"
  },
  {
    "icao": "FR-0255",
    "name": "Clamensane Altisurface",
    "lat": 44.314371,
    "lng": 6.071514,
    "elevationFt": 2933,
    "runways": [
      {
        "ident": "04D",
        "headingMag": 40,
        "lengthFt": 1312,
        "surface": "grass"
      },
      {
        "ident": "22A",
        "headingMag": 220,
        "lengthFt": 1312,
        "surface": "grass"
      }
    ],
    "frequencies": [],
    "updatedAt": "2026-06-21T11:28:06.720Z"
  },
  {
    "icao": "FR-0257",
    "name": "Altisurface du Clos de Legua",
    "lat": 42.654167,
    "lng": 2.038889,
    "elevationFt": 7874,
    "runways": [],
    "frequencies": [],
    "updatedAt": "2026-06-21T11:28:06.720Z"
  },
  {
    "icao": "FR-0258",
    "name": "Col de Belledonne Altiport",
    "lat": 45.166948,
    "lng": 5.986594,
    "elevationFt": 9186,
    "runways": [],
    "frequencies": [],
    "updatedAt": "2026-06-21T11:28:06.720Z"
  },
  {
    "icao": "FR-0259",
    "name": "Altiport du Col de Cenise",
    "lat": 46.020832,
    "lng": 6.45,
    "elevationFt": 5656,
    "runways": [],
    "frequencies": [],
    "updatedAt": "2026-06-21T11:28:06.720Z"
  },
  {
    "icao": "FR-0261",
    "name": "Altiport du Col de la Marrano",
    "lat": 42.662498,
    "lng": 2.166667,
    "elevationFt": 6562,
    "runways": [],
    "frequencies": [],
    "updatedAt": "2026-06-21T11:28:06.720Z"
  },
  {
    "icao": "FR-0262",
    "name": "Col de Sarenne Altiport",
    "lat": 45.087521,
    "lng": 6.145885,
    "elevationFt": 6496,
    "runways": [],
    "frequencies": [],
    "updatedAt": "2026-06-21T11:28:06.720Z"
  },
  {
    "icao": "FR-0263",
    "name": "Col du Béal Altiport",
    "lat": 45.680777,
    "lng": 3.789052,
    "elevationFt": 4823,
    "runways": [],
    "frequencies": [],
    "updatedAt": "2026-06-21T11:28:06.720Z"
  },
  {
    "icao": "FR-0265",
    "name": "Altisurface de Coste Del Palm",
    "lat": 42.60833,
    "lng": 2.011111,
    "elevationFt": 7710,
    "runways": [],
    "frequencies": [],
    "updatedAt": "2026-06-21T11:28:06.720Z"
  },
  {
    "icao": "FR-0266",
    "name": "Altisurface de Coumely",
    "lat": 42.762501,
    "lng": 0.022222,
    "elevationFt": 6562,
    "runways": [],
    "frequencies": [],
    "updatedAt": "2026-06-21T11:28:06.720Z"
  },
  {
    "icao": "FR-0268",
    "name": "Dôme de la Lauze Altisurface",
    "lat": 44.998611,
    "lng": 6.245833,
    "elevationFt": 11647,
    "runways": [],
    "frequencies": [],
    "updatedAt": "2026-06-21T11:28:06.720Z"
  },
  {
    "icao": "FR-0269",
    "name": "Altisurface de Ferrère Batmale",
    "lat": 42.888332,
    "lng": 0.498889,
    "elevationFt": 5749,
    "runways": [],
    "frequencies": [],
    "updatedAt": "2026-06-21T11:28:06.720Z"
  },
  {
    "icao": "FR-0270",
    "name": "Glacier d'Argentière Altiport",
    "lat": 45.941666,
    "lng": 7,
    "elevationFt": 9350,
    "runways": [],
    "frequencies": [],
    "updatedAt": "2026-06-21T11:28:06.720Z"
  },
  {
    "icao": "FR-0271",
    "name": "Glacier de la Barbarate Altisurface",
    "lat": 45.15927,
    "lng": 6.141508,
    "elevationFt": 9869,
    "runways": [],
    "frequencies": [],
    "updatedAt": "2026-06-21T11:28:06.720Z"
  },
  {
    "icao": "FR-0272",
    "name": "Altisurface du Glacier de la Chiaupe",
    "lat": 45.491669,
    "lng": 6.775,
    "elevationFt": 10170,
    "runways": [],
    "frequencies": [],
    "updatedAt": "2026-06-21T11:28:06.720Z"
  },
  {
    "icao": "FR-0273",
    "name": "Glacier de la Grande Motte Altiport",
    "lat": 45.424999,
    "lng": 6.894444,
    "elevationFt": 9564,
    "runways": [],
    "frequencies": [],
    "updatedAt": "2026-06-21T11:28:06.720Z"
  },
  {
    "icao": "FR-0274",
    "name": "Glacier de l'Étendard Altisurface",
    "lat": 45.162498,
    "lng": 6.166667,
    "elevationFt": 9514,
    "runways": [],
    "frequencies": [],
    "updatedAt": "2026-06-21T11:28:06.720Z"
  },
  {
    "icao": "FR-0275",
    "name": "Glacier de Talèfre Altiport",
    "lat": 45.908333,
    "lng": 6.983333,
    "elevationFt": 9121,
    "runways": [],
    "frequencies": [],
    "updatedAt": "2026-06-21T11:28:06.720Z"
  },
  {
    "icao": "FR-0276",
    "name": "Altisurface du Glacier Du Dome Du Gouter",
    "lat": 45.845833,
    "lng": 6.85,
    "elevationFt": 13940,
    "runways": [],
    "frequencies": [],
    "updatedAt": "2026-06-21T11:28:06.720Z"
  },
  {
    "icao": "FR-0277",
    "name": "Altisurface du Glacier Du Tacul",
    "lat": 45.891666,
    "lng": 6.9375,
    "elevationFt": 7382,
    "runways": [],
    "frequencies": [],
    "updatedAt": "2026-06-21T11:28:06.720Z"
  },
  {
    "icao": "FR-0278",
    "name": "Glacier du Tour Altisurface",
    "lat": 45.983033,
    "lng": 6.99983,
    "elevationFt": 10170,
    "runways": [
      {
        "ident": "08",
        "headingMag": 80,
        "lengthFt": 1640,
        "surface": "grass"
      },
      {
        "ident": "26",
        "headingMag": 260,
        "lengthFt": 1640,
        "surface": "grass"
      }
    ],
    "frequencies": [],
    "updatedAt": "2026-06-21T11:28:06.720Z"
  },
  {
    "icao": "FR-0279",
    "name": "Glacier Lombard Altisurface",
    "lat": 45.108334,
    "lng": 6.322222,
    "elevationFt": 10695,
    "runways": [],
    "frequencies": [],
    "updatedAt": "2026-06-21T11:28:06.720Z"
  },
  {
    "icao": "FR-0280",
    "name": "Altisurface du Grand Terrus",
    "lat": 44.422779,
    "lng": 5.644167,
    "elevationFt": 2871,
    "runways": [],
    "frequencies": [],
    "updatedAt": "2026-06-21T11:28:06.720Z"
  },
  {
    "icao": "FR-0281",
    "name": "Altisurface d'Hautacam",
    "lat": 42.99387,
    "lng": -0.012569,
    "elevationFt": 5512,
    "runways": [],
    "frequencies": [],
    "updatedAt": "2026-06-21T11:28:06.720Z"
  },
  {
    "icao": "FR-0282",
    "name": "Altisurface de l'Hippopotame",
    "lat": 42.473988,
    "lng": 2.049004,
    "elevationFt": 4921,
    "runways": [],
    "frequencies": [],
    "updatedAt": "2026-06-21T11:28:06.720Z"
  },
  {
    "icao": "FR-0283",
    "name": "Altisurface de Honteyde",
    "lat": 42.837223,
    "lng": 0.502222,
    "elevationFt": 6234,
    "runways": [],
    "frequencies": [],
    "updatedAt": "2026-06-21T11:28:06.720Z"
  },
  {
    "icao": "FR-0284",
    "name": "Isola 2000 Altisurface",
    "lat": 44.172895,
    "lng": 7.16296,
    "elevationFt": 7447,
    "runways": [],
    "frequencies": [],
    "updatedAt": "2026-06-21T11:28:06.720Z"
  },
  {
    "icao": "FR-0286",
    "name": "Altisurface de la Jasserie",
    "lat": 45.389115,
    "lng": 4.579091,
    "elevationFt": 4550,
    "runways": [],
    "frequencies": [],
    "updatedAt": "2026-06-21T11:28:06.720Z"
  },
  {
    "icao": "FR-0287",
    "name": "Altisurface de la Plagne-Bouirex",
    "lat": 42.866669,
    "lng": 1.138333,
    "elevationFt": 5249,
    "runways": [],
    "frequencies": [],
    "updatedAt": "2026-06-21T11:28:06.720Z"
  },
  {
    "icao": "FR-0288",
    "name": "Notre-Dame-de-la-Salette Altisurface",
    "lat": 44.841944,
    "lng": 5.962778,
    "elevationFt": 5184,
    "runways": [],
    "frequencies": [],
    "updatedAt": "2026-06-21T11:28:06.720Z"
  },
  {
    "icao": "FR-0289",
    "name": "La Serre d'Aulon Altiport",
    "lat": 42.836109,
    "lng": 0.272222,
    "elevationFt": 6562,
    "runways": [
      {
        "ident": "09",
        "headingMag": 90,
        "lengthFt": 590,
        "surface": "grass"
      },
      {
        "ident": "27",
        "headingMag": 270,
        "lengthFt": 590,
        "surface": "grass"
      },
      {
        "ident": "15",
        "headingMag": 150,
        "lengthFt": 492,
        "surface": "grass"
      },
      {
        "ident": "33",
        "headingMag": 330,
        "lengthFt": 492,
        "surface": "grass"
      }
    ],
    "frequencies": [],
    "updatedAt": "2026-06-21T11:28:06.720Z"
  },
  {
    "icao": "FR-0290",
    "name": "Altisurface de La Taillade",
    "lat": 44.891666,
    "lng": 2.956944,
    "elevationFt": 2913,
    "runways": [],
    "frequencies": [],
    "updatedAt": "2026-06-21T11:28:06.720Z"
  },
  {
    "icao": "FR-0291",
    "name": "La Tête Des Champs Altiport",
    "lat": 47.916668,
    "lng": 6.830556,
    "elevationFt": 3182,
    "runways": [],
    "frequencies": [],
    "updatedAt": "2026-06-21T11:28:06.720Z"
  },
  {
    "icao": "FR-0293",
    "name": "La Tovière Altiport",
    "lat": 45.465669,
    "lng": 6.932395,
    "elevationFt": 7349,
    "runways": [],
    "frequencies": [],
    "updatedAt": "2026-06-21T11:28:06.720Z"
  },
  {
    "icao": "FR-0294",
    "name": "Altisurface de l'Escoulin",
    "lat": 44.816111,
    "lng": 5.220278,
    "elevationFt": 2345,
    "runways": [],
    "frequencies": [],
    "updatedAt": "2026-06-21T11:28:06.720Z"
  },
  {
    "icao": "LFKK",
    "name": "Château de Montmeilleur Airfield",
    "lat": 44.793799,
    "lng": 5.764096,
    "elevationFt": 2789,
    "runways": [],
    "frequencies": [],
    "updatedAt": "2026-06-21T11:28:06.720Z"
  },
  {
    "icao": "FR-0296",
    "name": "Mont Llaret Pic d'Aude Altisurface",
    "lat": 42.575001,
    "lng": 2.038889,
    "elevationFt": 7628,
    "runways": [],
    "frequencies": [],
    "updatedAt": "2026-06-21T11:28:06.720Z"
  },
  {
    "icao": "FR-0297",
    "name": "Mont Llaret Roc d'Aude Airfield",
    "lat": 42.580555,
    "lng": 2.025,
    "elevationFt": 7710,
    "runways": [],
    "frequencies": [],
    "updatedAt": "2026-06-21T11:28:06.720Z"
  },
  {
    "icao": "FR-0298",
    "name": "Altisurface de Morzine-Avoriaz",
    "lat": 46.196667,
    "lng": 6.759722,
    "elevationFt": 5709,
    "runways": [],
    "frequencies": [],
    "updatedAt": "2026-06-21T11:28:06.720Z"
  },
  {
    "icao": "FR-0299",
    "name": "Pene De Soulit Altisurface",
    "lat": 42.793056,
    "lng": 0.4625,
    "elevationFt": 6365,
    "runways": [
      {
        "ident": "09",
        "headingMag": 90,
        "lengthFt": 492,
        "surface": "grass"
      },
      {
        "ident": "27",
        "headingMag": 270,
        "lengthFt": 492,
        "surface": "grass"
      }
    ],
    "frequencies": [
      {
        "type": "CTAF",
        "description": "",
        "frequencyMhz": 118.75
      },
      {
        "type": "INFO",
        "description": "Info trafic montagne",
        "frequencyMhz": 130
      }
    ],
    "updatedAt": "2026-06-21T11:28:06.720Z"
  },
  {
    "icao": "FR-0300",
    "name": "Altiport du Plateau de la Calme",
    "lat": 42.530556,
    "lng": 2.004167,
    "elevationFt": 6988,
    "runways": [
      {
        "ident": "07",
        "headingMag": 70,
        "lengthFt": 1312,
        "surface": "grass"
      },
      {
        "ident": "25",
        "headingMag": 250,
        "lengthFt": 1312,
        "surface": "grass"
      },
      {
        "ident": "16",
        "headingMag": 160,
        "lengthFt": 1640,
        "surface": "grass"
      },
      {
        "ident": "34",
        "headingMag": 340,
        "lengthFt": 1640,
        "surface": "grass"
      }
    ],
    "frequencies": [],
    "updatedAt": "2026-06-21T11:28:06.720Z"
  },
  {
    "icao": "FR-0301",
    "name": "Pointe de l'Ouillon Altisurface",
    "lat": 45.241166,
    "lng": 6.216524,
    "elevationFt": 7808,
    "runways": [],
    "frequencies": [],
    "updatedAt": "2026-06-21T11:28:06.720Z"
  },
  {
    "icao": "FR-0302",
    "name": "Saint-Jean-d'Arves Altisurface",
    "lat": 45.189711,
    "lng": 6.252546,
    "elevationFt": 5958,
    "runways": [
      {
        "ident": "01",
        "headingMag": 10,
        "lengthFt": 1083,
        "surface": "grass"
      },
      {
        "ident": "19",
        "headingMag": 190,
        "lengthFt": 1083,
        "surface": "grass"
      }
    ],
    "frequencies": [],
    "updatedAt": "2026-06-21T11:28:06.720Z"
  },
  {
    "icao": "FR-0303",
    "name": "Altisurface des Quatre Veziaux - La Hourquette d'Ancizan",
    "lat": 42.898532,
    "lng": 0.297144,
    "elevationFt": 5643,
    "runways": [],
    "frequencies": [],
    "updatedAt": "2026-06-21T11:28:06.720Z"
  },
  {
    "icao": "FR-0304",
    "name": "Saint-Roch Mayères Altisurface",
    "lat": 45.94923,
    "lng": 6.587126,
    "elevationFt": 5118,
    "runways": [],
    "frequencies": [],
    "updatedAt": "2026-06-21T11:28:06.720Z"
  },
  {
    "icao": "FR-0305",
    "name": "Thorame-Haute Chamatte Altisurface",
    "lat": 44.139721,
    "lng": 6.548333,
    "elevationFt": 6827,
    "runways": [],
    "frequencies": [],
    "updatedAt": "2026-06-21T11:28:06.720Z"
  },
  {
    "icao": "FR-0306",
    "name": "Thorame-Haute Les Serres Altisurface",
    "lat": 44.123055,
    "lng": 6.56,
    "elevationFt": 6129,
    "runways": [],
    "frequencies": [],
    "updatedAt": "2026-06-21T11:28:06.720Z"
  },
  {
    "icao": "FR-0307",
    "name": "Thorame-Haute Les Serres Altisurface (2)",
    "lat": 44.115002,
    "lng": 6.538611,
    "elevationFt": 6398,
    "runways": [],
    "frequencies": [],
    "updatedAt": "2026-06-21T11:28:06.720Z"
  },
  {
    "icao": "FR-0308",
    "name": "Altisurface Uls",
    "lat": 42.851944,
    "lng": 0.848889,
    "elevationFt": 6562,
    "runways": [],
    "frequencies": [],
    "updatedAt": "2026-06-21T11:28:06.720Z"
  },
  {
    "icao": "FR-0309",
    "name": "Val Thorens Altiport",
    "lat": 45.281685,
    "lng": 6.569465,
    "elevationFt": 8100,
    "runways": [
      {
        "ident": "10A",
        "headingMag": 100,
        "lengthFt": 1214,
        "surface": "grass"
      },
      {
        "ident": "28D",
        "headingMag": 280,
        "lengthFt": 1214,
        "surface": "grass"
      }
    ],
    "frequencies": [],
    "updatedAt": "2026-06-21T11:28:06.720Z"
  },
  {
    "icao": "FR-0310",
    "name": "Valloire-Bonnenuit Altisurface",
    "lat": 45.121079,
    "lng": 6.41871,
    "elevationFt": 5600,
    "runways": [],
    "frequencies": [],
    "updatedAt": "2026-06-21T11:28:06.720Z"
  },
  {
    "icao": "FR-0311",
    "name": "Altisurface de Valmorel",
    "lat": 45.455,
    "lng": 6.41306,
    "elevationFt": 6050,
    "runways": [],
    "frequencies": [],
    "updatedAt": "2026-06-21T11:28:06.720Z"
  },
  {
    "icao": "FR-0312",
    "name": "Altiport de Vaugellaz",
    "lat": 45.607224,
    "lng": 6.709722,
    "elevationFt": 6627,
    "runways": [],
    "frequencies": [],
    "updatedAt": "2026-06-21T11:28:06.720Z"
  },
  {
    "icao": "FR-0313",
    "name": "Col du Palet Altiport",
    "lat": 45.450452,
    "lng": 6.882602,
    "elevationFt": 8005,
    "runways": [],
    "frequencies": [],
    "updatedAt": "2026-06-21T11:28:06.720Z"
  },
  {
    "icao": "FR-0320",
    "name": "Luçon - Chasnais Aerodrome",
    "lat": 46.461913,
    "lng": -1.241447,
    "elevationFt": 20,
    "runways": [
      {
        "ident": "08",
        "headingMag": 80,
        "lengthFt": 2493,
        "surface": "grass"
      },
      {
        "ident": "26",
        "headingMag": 260,
        "lengthFt": 2493,
        "surface": "grass"
      }
    ],
    "frequencies": [],
    "updatedAt": "2026-06-21T11:28:06.720Z"
  },
  {
    "icao": "FR-0321",
    "name": "Mens Altiport",
    "lat": 44.804998,
    "lng": 5.754122,
    "elevationFt": 2800,
    "runways": [
      {
        "ident": "08",
        "headingMag": 80,
        "lengthFt": 1132,
        "surface": "grass"
      },
      {
        "ident": "26",
        "headingMag": 260,
        "lengthFt": 1132,
        "surface": "grass"
      }
    ],
    "frequencies": [],
    "updatedAt": "2026-06-21T11:28:06.720Z"
  },
  {
    "icao": "FR-0322",
    "name": "Col de Lèques Airfield",
    "lat": 43.86661,
    "lng": 6.463966,
    "elevationFt": 3793,
    "runways": [],
    "frequencies": [],
    "updatedAt": "2026-06-21T11:28:06.720Z"
  },
  {
    "icao": "FR-0323",
    "name": "Mont sur Meurthe Airfield",
    "lat": 48.543823,
    "lng": 6.441912,
    "elevationFt": 814,
    "runways": [
      {
        "ident": "02",
        "headingMag": 20,
        "lengthFt": 2297,
        "surface": "grass"
      },
      {
        "ident": "20",
        "headingMag": 200,
        "lengthFt": 2297,
        "surface": "grass"
      }
    ],
    "frequencies": [],
    "updatedAt": "2026-06-21T11:28:06.720Z"
  },
  {
    "icao": "FR-0324",
    "name": "Verchocq Airpark",
    "lat": 50.541124,
    "lng": 2.033945,
    "elevationFt": 574,
    "runways": [],
    "frequencies": [],
    "updatedAt": "2026-06-21T11:28:06.720Z"
  },
  {
    "icao": "FR-0326",
    "name": "Saint Maurice Ultralight Airfield",
    "lat": 45.96559,
    "lng": 0.739478,
    "elevationFt": 755,
    "runways": [],
    "frequencies": [],
    "updatedAt": "2026-06-21T11:28:06.720Z"
  },
  {
    "icao": "FR-0327",
    "name": "Crottet-Le Bief Ultralight Airfield",
    "lat": 46.284929,
    "lng": 4.885957,
    "elevationFt": 597,
    "runways": [],
    "frequencies": [],
    "updatedAt": "2026-06-21T11:28:06.720Z"
  },
  {
    "icao": "FR-0328",
    "name": "La Flamengrie ULM",
    "lat": 50.00025,
    "lng": 3.94482,
    "elevationFt": 699,
    "runways": [
      {
        "ident": "01",
        "headingMag": 10,
        "lengthFt": 984,
        "surface": "grass"
      },
      {
        "ident": "19",
        "headingMag": 190,
        "lengthFt": 984,
        "surface": "grass"
      }
    ],
    "frequencies": [],
    "updatedAt": "2026-06-21T11:28:06.720Z"
  },
  {
    "icao": "FR-0329",
    "name": "Ulmodrome de Limoux",
    "lat": 43.05666,
    "lng": 2.22633,
    "elevationFt": 660,
    "runways": [],
    "frequencies": [],
    "updatedAt": "2026-06-21T11:28:06.720Z"
  },
  {
    "icao": "FR-0330",
    "name": "Kerfot Ultralight Airfield",
    "lat": 48.723882,
    "lng": -3.027055,
    "elevationFt": 308,
    "runways": [],
    "frequencies": [],
    "updatedAt": "2026-06-21T11:28:06.720Z"
  },
  {
    "icao": "FR-0331",
    "name": "Javerlhac Ultralight Airfield",
    "lat": 45.553817,
    "lng": 0.5585,
    "elevationFt": 633,
    "runways": [
      {
        "ident": "05",
        "headingMag": 50,
        "lengthFt": 2395,
        "surface": "grass"
      },
      {
        "ident": "23",
        "headingMag": 230,
        "lengthFt": 2395,
        "surface": "grass"
      }
    ],
    "frequencies": [],
    "updatedAt": "2026-06-21T11:28:06.720Z"
  },
  {
    "icao": "FR-0332",
    "name": "Fournet ULM",
    "lat": 47.177389,
    "lng": 6.812911,
    "elevationFt": 2874,
    "runways": [],
    "frequencies": [],
    "updatedAt": "2026-06-21T11:28:06.720Z"
  },
  {
    "icao": "FR-0333",
    "name": "Envol Ultralight Airfield Alsace",
    "lat": 48.148452,
    "lng": 7.536407,
    "elevationFt": 1890,
    "runways": [],
    "frequencies": [],
    "updatedAt": "2026-06-21T11:28:06.720Z"
  },
  {
    "icao": "FR-0334",
    "name": "Verneuil en Bourbonnais",
    "lat": 46.359444,
    "lng": 3.268056,
    "elevationFt": 885,
    "runways": [],
    "frequencies": [],
    "updatedAt": "2026-06-21T11:28:06.720Z"
  },
  {
    "icao": "FR-0335",
    "name": "Doucier Airfield",
    "lat": 46.663693,
    "lng": 5.761492,
    "elevationFt": 1735,
    "runways": [
      {
        "ident": "03",
        "headingMag": 30,
        "lengthFt": 1969,
        "surface": "grass"
      },
      {
        "ident": "21",
        "headingMag": 210,
        "lengthFt": 1969,
        "surface": "grass"
      },
      {
        "ident": "09",
        "headingMag": 90,
        "lengthFt": 1427,
        "surface": "grass"
      },
      {
        "ident": "27",
        "headingMag": 270,
        "lengthFt": 1427,
        "surface": "grass"
      }
    ],
    "frequencies": [],
    "updatedAt": "2026-06-21T11:28:06.720Z"
  },
  {
    "icao": "FR-0337",
    "name": "Cabrerets ULM",
    "lat": 44.51415,
    "lng": 1.592503,
    "elevationFt": 1177,
    "runways": [],
    "frequencies": [],
    "updatedAt": "2026-06-21T11:28:06.720Z"
  },
  {
    "icao": "FR-0338",
    "name": "Carlucet Biguès ULM",
    "lat": 44.744167,
    "lng": 1.618333,
    "elevationFt": 1045,
    "runways": [
      {
        "ident": "17",
        "headingMag": 170,
        "lengthFt": 2461,
        "surface": "grass"
      },
      {
        "ident": "35",
        "headingMag": 350,
        "lengthFt": 2461,
        "surface": "grass"
      }
    ],
    "frequencies": [],
    "updatedAt": "2026-06-21T11:28:06.720Z"
  },
  {
    "icao": "FR-0339",
    "name": "Saint Sigismond ULM",
    "lat": 47.439444,
    "lng": -0.935833,
    "elevationFt": 243,
    "runways": [],
    "frequencies": [],
    "updatedAt": "2026-06-21T11:28:06.720Z"
  },
  {
    "icao": "FR-0340",
    "name": "Ramonchamp Ultralight Airfield",
    "lat": 47.895567,
    "lng": 6.754418,
    "elevationFt": 1893,
    "runways": [],
    "frequencies": [],
    "updatedAt": "2026-06-21T11:28:06.720Z"
  },
  {
    "icao": "FR-0341",
    "name": "La Tranclière Private Airstrip",
    "lat": 46.095759,
    "lng": 5.28602,
    "elevationFt": 820,
    "runways": [],
    "frequencies": [],
    "updatedAt": "2026-06-21T11:28:06.720Z"
  },
  {
    "icao": "FR-0342",
    "name": "Lavours Airfield",
    "lat": 45.795718,
    "lng": 5.773954,
    "elevationFt": 768,
    "runways": [],
    "frequencies": [],
    "updatedAt": "2026-06-21T11:28:06.720Z"
  },
  {
    "icao": "FR-0344",
    "name": "Saint Quentin Ultralight Airfield",
    "lat": 49.852505,
    "lng": 3.336229,
    "elevationFt": 0,
    "runways": [],
    "frequencies": [],
    "updatedAt": "2026-06-21T11:28:06.720Z"
  },
  {
    "icao": "FR-0347",
    "name": "Mellac Ultralight Airfield",
    "lat": 47.912079,
    "lng": -3.565698,
    "elevationFt": 0,
    "runways": [],
    "frequencies": [],
    "updatedAt": "2026-06-21T11:28:06.720Z"
  },
  {
    "icao": "FR-0348",
    "name": "La Motte-du-Caire Glider Field",
    "lat": 44.32286,
    "lng": 6.031286,
    "elevationFt": 2132,
    "runways": [],
    "frequencies": [],
    "updatedAt": "2026-06-21T11:28:06.720Z"
  },
  {
    "icao": "FR-0349",
    "name": "Aérodrome de Saint-Aubin La Plaine",
    "lat": 46.515876,
    "lng": -1.051669,
    "elevationFt": 155,
    "runways": [
      {
        "ident": "11",
        "headingMag": 110,
        "lengthFt": 3117,
        "surface": "grass"
      },
      {
        "ident": "29",
        "headingMag": 290,
        "lengthFt": 3117,
        "surface": "grass"
      }
    ],
    "frequencies": [],
    "updatedAt": "2026-06-21T11:28:06.720Z"
  },
  {
    "icao": "FR-0353",
    "name": "Val de l'Ailette Airfield",
    "lat": 49.568056,
    "lng": 3.225278,
    "elevationFt": 180,
    "runways": [
      {
        "ident": "01",
        "headingMag": 10,
        "lengthFt": 820,
        "surface": "grass"
      },
      {
        "ident": "19",
        "headingMag": 190,
        "lengthFt": 820,
        "surface": "grass"
      }
    ],
    "frequencies": [],
    "updatedAt": "2026-06-21T11:28:06.720Z"
  },
  {
    "icao": "FR-0355",
    "name": "Troye d'Ariège ULM",
    "lat": 43.020043,
    "lng": 1.877509,
    "elevationFt": 1377,
    "runways": [],
    "frequencies": [],
    "updatedAt": "2026-06-21T11:28:06.720Z"
  },
  {
    "icao": "FR-0356",
    "name": "Seyne les Alpes Glider Field",
    "lat": 44.341944,
    "lng": 6.372778,
    "elevationFt": 3937,
    "runways": [],
    "frequencies": [],
    "updatedAt": "2026-06-21T11:28:06.720Z"
  },
  {
    "icao": "FR-0370",
    "name": "Gaussan ULM",
    "lat": 43.219115,
    "lng": 0.473498,
    "elevationFt": 0,
    "runways": [],
    "frequencies": [],
    "updatedAt": "2026-06-21T11:28:06.720Z"
  },
  {
    "icao": "FR-0371",
    "name": "Fromissard ULM",
    "lat": 44.003856,
    "lng": 1.229357,
    "elevationFt": 0,
    "runways": [],
    "frequencies": [],
    "updatedAt": "2026-06-21T11:28:06.720Z"
  },
  {
    "icao": "FR-0374",
    "name": "Corbonod-Seyssel Private Airfield",
    "lat": 45.9618,
    "lng": 5.8178,
    "elevationFt": 1175,
    "runways": [],
    "frequencies": [],
    "updatedAt": "2026-06-21T11:28:06.720Z"
  },
  {
    "icao": "FR-0380",
    "name": "Les Bories Ultralight Airfield",
    "lat": 44.511353,
    "lng": 3.270996,
    "elevationFt": 0,
    "runways": [],
    "frequencies": [],
    "updatedAt": "2026-06-21T11:28:06.720Z"
  },
  {
    "icao": "FR-0381",
    "name": "Fontaine-lès-Clerval Ultralight Airfield",
    "lat": 47.420889,
    "lng": 6.459371,
    "elevationFt": 0,
    "runways": [],
    "frequencies": [],
    "updatedAt": "2026-06-21T11:28:06.720Z"
  },
  {
    "icao": "FR-0383",
    "name": "Aghione Casone Ultralight Airfield",
    "lat": 42.101866,
    "lng": 9.415692,
    "elevationFt": 0,
    "runways": [],
    "frequencies": [],
    "updatedAt": "2026-06-21T11:28:06.720Z"
  },
  {
    "icao": "FR-0384",
    "name": "Forez Ultralight Airfield",
    "lat": 45.637824,
    "lng": 4.060888,
    "elevationFt": 1257,
    "runways": [],
    "frequencies": [],
    "updatedAt": "2026-06-21T11:28:06.720Z"
  },
  {
    "icao": "FR-0390",
    "name": "Saint-Suffren Private Ultralight Airfield",
    "lat": 43.644951,
    "lng": 5.312621,
    "elevationFt": 837,
    "runways": [],
    "frequencies": [],
    "updatedAt": "2026-06-21T11:28:06.720Z"
  },
  {
    "icao": "FR-0392",
    "name": "Col de Bacchus Airstrip",
    "lat": 44.8531,
    "lng": 5.168788,
    "elevationFt": 3200,
    "runways": [
      {
        "ident": "04",
        "headingMag": 40,
        "lengthFt": 1148,
        "surface": "grass"
      },
      {
        "ident": "22",
        "headingMag": 220,
        "lengthFt": 1148,
        "surface": "grass"
      }
    ],
    "frequencies": [],
    "updatedAt": "2026-06-21T11:28:06.720Z"
  },
  {
    "icao": "FR-0393",
    "name": "Aérodrome de Loupiac",
    "lat": 44.831328,
    "lng": 1.474571,
    "elevationFt": 895,
    "runways": [],
    "frequencies": [],
    "updatedAt": "2026-06-21T11:28:06.720Z"
  },
  {
    "icao": "FR-0394",
    "name": "Aérodrome de Lacave le Frau",
    "lat": 44.841835,
    "lng": 1.58879,
    "elevationFt": 980,
    "runways": [
      {
        "ident": "13",
        "headingMag": 130,
        "lengthFt": 2297,
        "surface": "grass"
      },
      {
        "ident": "31",
        "headingMag": 310,
        "lengthFt": 2297,
        "surface": "grass"
      }
    ],
    "frequencies": [],
    "updatedAt": "2026-06-21T11:28:06.720Z"
  },
  {
    "icao": "FR-0395",
    "name": "Aérodrome de Peyrillac",
    "lat": 44.889715,
    "lng": 1.416185,
    "elevationFt": 899,
    "runways": [],
    "frequencies": [],
    "updatedAt": "2026-06-21T11:28:06.720Z"
  },
  {
    "icao": "FR-0398",
    "name": "St Laurent de la Salanque Airbase",
    "lat": 42.79729,
    "lng": 3.002915,
    "elevationFt": 30,
    "runways": [],
    "frequencies": [],
    "updatedAt": "2026-06-21T11:28:06.720Z"
  },
  {
    "icao": "FR-0399",
    "name": "Corneilla-la-Rivière Ultralight Airfield",
    "lat": 42.690858,
    "lng": 2.730124,
    "elevationFt": 230,
    "runways": [],
    "frequencies": [],
    "updatedAt": "2026-06-21T11:28:06.720Z"
  },
  {
    "icao": "FR-0400",
    "name": "Saint Génis Ultralight Airfield",
    "lat": 42.546575,
    "lng": 2.908942,
    "elevationFt": 150,
    "runways": [],
    "frequencies": [],
    "updatedAt": "2026-06-21T11:28:06.720Z"
  },
  {
    "icao": "FR-0401",
    "name": "Sadournin Airfield",
    "lat": 43.32606,
    "lng": 0.415109,
    "elevationFt": 918,
    "runways": [
      {
        "ident": "08",
        "headingMag": 80,
        "lengthFt": 2198,
        "surface": "grass"
      },
      {
        "ident": "26",
        "headingMag": 260,
        "lengthFt": 2198,
        "surface": "grass"
      }
    ],
    "frequencies": [],
    "updatedAt": "2026-06-21T11:28:06.720Z"
  },
  {
    "icao": "FR-0402",
    "name": "Larreule Ultralight Airfield",
    "lat": 43.44217,
    "lng": 0.039654,
    "elevationFt": 606,
    "runways": [
      {
        "ident": "17",
        "headingMag": 170,
        "lengthFt": 1542,
        "surface": "grass"
      },
      {
        "ident": "35",
        "headingMag": 350,
        "lengthFt": 1542,
        "surface": "grass"
      }
    ],
    "frequencies": [],
    "updatedAt": "2026-06-21T11:28:06.720Z"
  },
  {
    "icao": "FR-0403",
    "name": "Sauveterre Airfield",
    "lat": 43.47417,
    "lng": 0.078181,
    "elevationFt": 587,
    "runways": [],
    "frequencies": [],
    "updatedAt": "2026-06-21T11:28:06.720Z"
  },
  {
    "icao": "FR-0404",
    "name": "Sarriac Bigorre Airfield",
    "lat": 43.382794,
    "lng": 0.134009,
    "elevationFt": 718,
    "runways": [],
    "frequencies": [],
    "updatedAt": "2026-06-21T11:28:06.720Z"
  },
  {
    "icao": "FR-0405",
    "name": "Aérodrome de L'Isle-en-Dodon",
    "lat": 43.380657,
    "lng": 0.851848,
    "elevationFt": 918,
    "runways": [],
    "frequencies": [],
    "updatedAt": "2026-06-21T11:28:06.720Z"
  },
  {
    "icao": "FR-0406",
    "name": "Vallon des Bergons",
    "lat": 43.020745,
    "lng": -0.178995,
    "elevationFt": 3445,
    "runways": [],
    "frequencies": [],
    "updatedAt": "2026-06-21T11:28:06.720Z"
  },
  {
    "icao": "FR-0409",
    "name": "Super Bareges - Plateau de Monhaillat Altisurface",
    "lat": 42.911111,
    "lng": 0.125556,
    "elevationFt": 6312,
    "runways": [],
    "frequencies": [],
    "updatedAt": "2026-06-21T11:28:06.720Z"
  },
  {
    "icao": "FR-0410",
    "name": "Villeneuve du Latou Airfield",
    "lat": 43.20358,
    "lng": 1.418663,
    "elevationFt": 1330,
    "runways": [
      {
        "ident": "05",
        "headingMag": 50,
        "lengthFt": 984,
        "surface": "grass"
      },
      {
        "ident": "23",
        "headingMag": 230,
        "lengthFt": 984,
        "surface": "grass"
      }
    ],
    "frequencies": [],
    "updatedAt": "2026-06-21T11:28:06.720Z"
  },
  {
    "icao": "FR-0411",
    "name": "Montpezat d'Agenais",
    "lat": 44.364167,
    "lng": 0.491389,
    "elevationFt": 120,
    "runways": [],
    "frequencies": [],
    "updatedAt": "2026-06-21T11:28:06.720Z"
  },
  {
    "icao": "FR-0412",
    "name": "Sarrat Ultralight Airfield",
    "lat": 43.208593,
    "lng": 1.708594,
    "elevationFt": 846,
    "runways": [
      {
        "ident": "11",
        "headingMag": 110,
        "lengthFt": 984,
        "surface": "grass"
      },
      {
        "ident": "29",
        "headingMag": 290,
        "lengthFt": 984,
        "surface": "grass"
      }
    ],
    "frequencies": [],
    "updatedAt": "2026-06-21T11:28:06.720Z"
  },
  {
    "icao": "FR-0413",
    "name": "Altiport d'Ustou",
    "lat": 42.78137,
    "lng": 1.22577,
    "elevationFt": 5896,
    "runways": [
      {
        "ident": "16",
        "headingMag": 160,
        "lengthFt": 820,
        "surface": "grass"
      },
      {
        "ident": "34",
        "headingMag": 340,
        "lengthFt": 820,
        "surface": "grass"
      }
    ],
    "frequencies": [],
    "updatedAt": "2026-06-21T11:28:06.720Z"
  },
  {
    "icao": "FR-0414",
    "name": "Le Fousseret Ultralight Airfield",
    "lat": 43.268889,
    "lng": 1.053889,
    "elevationFt": 820,
    "runways": [
      {
        "ident": "10",
        "headingMag": 100,
        "lengthFt": 1247,
        "surface": "grass"
      },
      {
        "ident": "28",
        "headingMag": 280,
        "lengthFt": 1247,
        "surface": "grass"
      }
    ],
    "frequencies": [],
    "updatedAt": "2026-06-21T11:28:06.720Z"
  },
  {
    "icao": "FR-0415",
    "name": "Aerodrome de Bois de la Pierre",
    "lat": 43.342596,
    "lng": 1.14202,
    "elevationFt": 840,
    "runways": [],
    "frequencies": [],
    "updatedAt": "2026-06-21T11:28:06.720Z"
  },
  {
    "icao": "FR-0416",
    "name": "Aérodrome de Sabonnères",
    "lat": 43.455707,
    "lng": 1.07548,
    "elevationFt": 1050,
    "runways": [
      {
        "ident": "09",
        "headingMag": 90,
        "lengthFt": 1968,
        "surface": "grass"
      },
      {
        "ident": "27",
        "headingMag": 270,
        "lengthFt": 1968,
        "surface": "grass"
      }
    ],
    "frequencies": [],
    "updatedAt": "2026-06-21T11:28:06.720Z"
  },
  {
    "icao": "FR-0417",
    "name": "Labastide-Saint-Sernin Ultralight Airfield",
    "lat": 43.73298,
    "lng": 1.459293,
    "elevationFt": 500,
    "runways": [],
    "frequencies": [],
    "updatedAt": "2026-06-21T11:28:06.720Z"
  },
  {
    "icao": "FR-0418",
    "name": "Marmouzet Airfield",
    "lat": 43.245547,
    "lng": 1.231971,
    "elevationFt": 1050,
    "runways": [],
    "frequencies": [],
    "updatedAt": "2026-06-21T11:28:06.720Z"
  },
  {
    "icao": "FR-0419",
    "name": "Le Tucoulet Ultralight Airfield",
    "lat": 43.201258,
    "lng": 0.547353,
    "elevationFt": 1627,
    "runways": [],
    "frequencies": [],
    "updatedAt": "2026-06-21T11:28:06.720Z"
  },
  {
    "icao": "FR-0420",
    "name": "Valberg Altisurface",
    "lat": 44.106418,
    "lng": 6.939904,
    "elevationFt": 5680,
    "runways": [
      {
        "ident": "14A",
        "headingMag": 140,
        "lengthFt": 1345,
        "surface": "grass"
      },
      {
        "ident": "32D",
        "headingMag": 320,
        "lengthFt": 1345,
        "surface": "grass"
      }
    ],
    "frequencies": [],
    "updatedAt": "2026-06-21T11:28:06.720Z"
  },
  {
    "icao": "FR-0421",
    "name": "Altisurface de Faucon",
    "lat": 44.535942,
    "lng": 5.308027,
    "elevationFt": 3300,
    "runways": [],
    "frequencies": [],
    "updatedAt": "2026-06-21T11:28:06.720Z"
  },
  {
    "icao": "FR-0423",
    "name": "Le Burgaud Ultralight Airfield",
    "lat": 43.816327,
    "lng": 1.13966,
    "elevationFt": 600,
    "runways": [
      {
        "ident": "14",
        "headingMag": 140,
        "lengthFt": 1312,
        "surface": "grass"
      },
      {
        "ident": "32",
        "headingMag": 320,
        "lengthFt": 1312,
        "surface": "grass"
      }
    ],
    "frequencies": [],
    "updatedAt": "2026-06-21T11:28:06.720Z"
  },
  {
    "icao": "FR-0424",
    "name": "Bazas Cazats Airfield",
    "lat": 44.462263,
    "lng": -0.187844,
    "elevationFt": 300,
    "runways": [],
    "frequencies": [],
    "updatedAt": "2026-06-21T11:28:06.720Z"
  },
  {
    "icao": "LFTA",
    "name": "La Tranche-sur-Mer ULM",
    "lat": 46.363534,
    "lng": -1.427364,
    "elevationFt": 16,
    "runways": [
      {
        "ident": "17",
        "headingMag": 170,
        "lengthFt": 2625,
        "surface": "grass"
      },
      {
        "ident": "35",
        "headingMag": 350,
        "lengthFt": 2625,
        "surface": "grass"
      }
    ],
    "frequencies": [],
    "updatedAt": "2026-06-21T11:28:06.720Z"
  },
  {
    "icao": "FR-0426",
    "name": "Aérodrome du Girouard",
    "lat": 46.578838,
    "lng": -1.606048,
    "elevationFt": 150,
    "runways": [],
    "frequencies": [],
    "updatedAt": "2026-06-21T11:28:06.720Z"
  },
  {
    "icao": "FR-0427",
    "name": "Talmont Vendée Air Park",
    "lat": 46.493761,
    "lng": -1.576506,
    "elevationFt": 150,
    "runways": [],
    "frequencies": [],
    "updatedAt": "2026-06-21T11:28:06.720Z"
  },
  {
    "icao": "FR-0428",
    "name": "Base ULM Thollon les Mémises",
    "lat": 46.396667,
    "lng": 6.716667,
    "elevationFt": 2996,
    "runways": [],
    "frequencies": [],
    "updatedAt": "2026-06-21T11:28:06.720Z"
  },
  {
    "icao": "FR-0429",
    "name": "Fontrailles Ultralight Airfield",
    "lat": 43.345961,
    "lng": 0.361649,
    "elevationFt": 900,
    "runways": [
      {
        "ident": "10",
        "headingMag": 100,
        "lengthFt": 1444,
        "surface": "grass"
      },
      {
        "ident": "28",
        "headingMag": 280,
        "lengthFt": 1444,
        "surface": "grass"
      }
    ],
    "frequencies": [],
    "updatedAt": "2026-06-21T11:28:06.720Z"
  },
  {
    "icao": "FR-0430",
    "name": "Pressignac Vicq Rebeyrotte",
    "lat": 44.90117,
    "lng": 0.74781,
    "elevationFt": 643,
    "runways": [],
    "frequencies": [],
    "updatedAt": "2026-06-21T11:28:06.720Z"
  },
  {
    "icao": "FR-0431",
    "name": "Azur Ultralight Airfield",
    "lat": 49.461033,
    "lng": 3.848283,
    "elevationFt": 240,
    "runways": [],
    "frequencies": [],
    "updatedAt": "2026-06-21T11:28:06.720Z"
  },
  {
    "icao": "FR-0432",
    "name": "Mosloy Airfield",
    "lat": 49.174466,
    "lng": 3.154335,
    "elevationFt": 453,
    "runways": [],
    "frequencies": [],
    "updatedAt": "2026-06-21T11:28:06.720Z"
  },
  {
    "icao": "FR-0433",
    "name": "Ployart Ultralight Airfield",
    "lat": 49.50491,
    "lng": 3.739729,
    "elevationFt": 580,
    "runways": [],
    "frequencies": [],
    "updatedAt": "2026-06-21T11:28:06.720Z"
  },
  {
    "icao": "FR-0434",
    "name": "Brochot Aerodrome",
    "lat": 48.976587,
    "lng": 3.373087,
    "elevationFt": 574,
    "runways": [],
    "frequencies": [],
    "updatedAt": "2026-06-21T11:28:06.720Z"
  },
  {
    "icao": "FR-0435",
    "name": "Cesseville Ferme des Moulins Private Airfield",
    "lat": 49.177837,
    "lng": 0.9953,
    "elevationFt": 485,
    "runways": [],
    "frequencies": [],
    "updatedAt": "2026-06-21T11:28:06.720Z"
  },
  {
    "icao": "FR-0436",
    "name": "Val-de-Reuil Ultralight Airfield",
    "lat": 49.282168,
    "lng": 1.23167,
    "elevationFt": 33,
    "runways": [],
    "frequencies": [],
    "updatedAt": "2026-06-21T11:28:06.720Z"
  },
  {
    "icao": "FR-0437",
    "name": "Les Noyers Ultralight Airfield",
    "lat": 49.25944,
    "lng": 1.65973,
    "elevationFt": 328,
    "runways": [],
    "frequencies": [],
    "updatedAt": "2026-06-21T11:28:06.720Z"
  },
  {
    "icao": "FR-0438",
    "name": "Champrond Le Petit Bois Landry Ultralight Airfield",
    "lat": 48.39361,
    "lng": 1.05753,
    "elevationFt": 853,
    "runways": [],
    "frequencies": [],
    "updatedAt": "2026-06-21T11:28:06.720Z"
  },
  {
    "icao": "FR-0439",
    "name": "Base ULM de Sury en Vaux",
    "lat": 47.38084,
    "lng": 2.78308,
    "elevationFt": 1000,
    "runways": [],
    "frequencies": [],
    "updatedAt": "2026-06-21T11:28:06.720Z"
  },
  {
    "icao": "FR-0440",
    "name": "Guynem'air Ultralight Airfield",
    "lat": 46.34685,
    "lng": 0.51751,
    "elevationFt": 443,
    "runways": [],
    "frequencies": [],
    "updatedAt": "2026-06-21T11:28:06.720Z"
  },
  {
    "icao": "FR-0441",
    "name": "Frossay Ultralight Airfield",
    "lat": 47.238222,
    "lng": -1.878275,
    "elevationFt": 10,
    "runways": [],
    "frequencies": [],
    "updatedAt": "2026-06-21T11:28:06.720Z"
  },
  {
    "icao": "FR-0442",
    "name": "Grange Dieu Levroux Ultralight Airfield",
    "lat": 46.95981,
    "lng": 1.65979,
    "elevationFt": 540,
    "runways": [],
    "frequencies": [],
    "updatedAt": "2026-06-21T11:28:06.720Z"
  },
  {
    "icao": "FR-0443",
    "name": "Beaulieu-sur-Loire Ultralight Airfield",
    "lat": 47.55844,
    "lng": 2.8242,
    "elevationFt": 443,
    "runways": [],
    "frequencies": [],
    "updatedAt": "2026-06-21T11:28:06.720Z"
  },
  {
    "icao": "FR-0444",
    "name": "Courseulles-sur-Mer Ultralight Airfield",
    "lat": 49.314065,
    "lng": -0.454022,
    "elevationFt": 150,
    "runways": [],
    "frequencies": [],
    "updatedAt": "2026-06-21T11:28:06.720Z"
  },
  {
    "icao": "FR-0445",
    "name": "Altiport du Bez",
    "lat": 44.63415,
    "lng": 4.046499,
    "elevationFt": 4320,
    "runways": [
      {
        "ident": "05",
        "headingMag": 50,
        "lengthFt": 1050,
        "surface": "grass"
      },
      {
        "ident": "23",
        "headingMag": 230,
        "lengthFt": 1050,
        "surface": "grass"
      }
    ],
    "frequencies": [],
    "updatedAt": "2026-06-21T11:28:06.720Z"
  },
  {
    "icao": "FR-0446",
    "name": "Plouarzel Ultralight Airfield",
    "lat": 48.422604,
    "lng": -4.696841,
    "elevationFt": 400,
    "runways": [],
    "frequencies": [],
    "updatedAt": "2026-06-21T11:28:06.720Z"
  },
  {
    "icao": "FR-0447",
    "name": "Ploballanec Ultralight Airfield",
    "lat": 47.818415,
    "lng": -4.248724,
    "elevationFt": 49,
    "runways": [],
    "frequencies": [],
    "updatedAt": "2026-06-21T11:28:06.720Z"
  },
  {
    "icao": "FR-0448",
    "name": "Le Pommier Ultralight Airfield",
    "lat": 46.19701,
    "lng": 1.45252,
    "elevationFt": 1140,
    "runways": [],
    "frequencies": [],
    "updatedAt": "2026-06-21T11:28:06.720Z"
  },
  {
    "icao": "FR-0449",
    "name": "Saint-Benoît-sur-Loire Ultralight Airfield",
    "lat": 47.79157,
    "lng": 2.33751,
    "elevationFt": 367,
    "runways": [],
    "frequencies": [],
    "updatedAt": "2026-06-21T11:28:06.720Z"
  },
  {
    "icao": "FR-0450",
    "name": "La Collancelle Ultralight Airfield",
    "lat": 47.19121,
    "lng": 3.644,
    "elevationFt": 985,
    "runways": [],
    "frequencies": [],
    "updatedAt": "2026-06-21T11:28:06.720Z"
  },
  {
    "icao": "FR-0451",
    "name": "Aerodrome de Fougères-sur-Bièvre",
    "lat": 47.45769,
    "lng": 1.36382,
    "elevationFt": 335,
    "runways": [
      {
        "ident": "07",
        "headingMag": 70,
        "lengthFt": 1969,
        "surface": "grass"
      },
      {
        "ident": "25",
        "headingMag": 250,
        "lengthFt": 1969,
        "surface": "grass"
      }
    ],
    "frequencies": [],
    "updatedAt": "2026-06-21T11:28:06.720Z"
  },
  {
    "icao": "FR-0452",
    "name": "Aérodrome privé Le Quilloux",
    "lat": 47.59963,
    "lng": -1.9143,
    "elevationFt": 120,
    "runways": [],
    "frequencies": [],
    "updatedAt": "2026-06-21T11:28:06.720Z"
  },
  {
    "icao": "FR-0453",
    "name": "Flavacourt Ultralight Airfield",
    "lat": 49.35105,
    "lng": 1.81304,
    "elevationFt": 456,
    "runways": [],
    "frequencies": [],
    "updatedAt": "2026-06-21T11:28:06.720Z"
  },
  {
    "icao": "FR-0454",
    "name": "Arbis Ultralight Airfield",
    "lat": 44.68066,
    "lng": -0.25683,
    "elevationFt": 200,
    "runways": [],
    "frequencies": [],
    "updatedAt": "2026-06-21T11:28:06.720Z"
  },
  {
    "icao": "FR-0455",
    "name": "Saint-Pierre-de-Bat Ultralight Airfield",
    "lat": 44.66716,
    "lng": -0.21962,
    "elevationFt": 158,
    "runways": [],
    "frequencies": [],
    "updatedAt": "2026-06-21T11:28:06.720Z"
  },
  {
    "icao": "FR-0456",
    "name": "Siersthal Airstrip",
    "lat": 49.05275,
    "lng": 7.36527,
    "elevationFt": 0,
    "runways": [],
    "frequencies": [],
    "updatedAt": "2026-06-21T11:28:06.720Z"
  },
  {
    "icao": "FR-0465",
    "name": "Neuflieux Airfield",
    "lat": 49.611111,
    "lng": 3.148611,
    "elevationFt": 195,
    "runways": [
      {
        "ident": "06",
        "headingMag": 60,
        "lengthFt": 656,
        "surface": "grass"
      },
      {
        "ident": "24",
        "headingMag": 240,
        "lengthFt": 656,
        "surface": "grass"
      },
      {
        "ident": "17",
        "headingMag": 170,
        "lengthFt": 656,
        "surface": "grass"
      },
      {
        "ident": "35",
        "headingMag": 350,
        "lengthFt": 656,
        "surface": "grass"
      }
    ],
    "frequencies": [],
    "updatedAt": "2026-06-21T11:28:06.720Z"
  },
  {
    "icao": "FR-0466",
    "name": "Corbeny Ultralight Airfield",
    "lat": 49.457382,
    "lng": 3.854544,
    "elevationFt": 230,
    "runways": [
      {
        "ident": "18",
        "headingMag": 180,
        "lengthFt": 1312,
        "surface": "grass"
      },
      {
        "ident": "36",
        "headingMag": 360,
        "lengthFt": 1312,
        "surface": "grass"
      }
    ],
    "frequencies": [],
    "updatedAt": "2026-06-21T11:28:06.720Z"
  },
  {
    "icao": "FR-0467",
    "name": "Taillefontaine Airfield",
    "lat": 49.307868,
    "lng": 3.06599,
    "elevationFt": 475,
    "runways": [
      {
        "ident": "03",
        "headingMag": 30,
        "lengthFt": 1968,
        "surface": "grass"
      },
      {
        "ident": "21",
        "headingMag": 210,
        "lengthFt": 1968,
        "surface": "grass"
      }
    ],
    "frequencies": [],
    "updatedAt": "2026-06-21T11:28:06.720Z"
  },
  {
    "icao": "FR-0468",
    "name": "Altisurface du Glacier du Passon \"du haut\"",
    "lat": 45.98044,
    "lng": 6.979303,
    "elevationFt": 9750,
    "runways": [],
    "frequencies": [],
    "updatedAt": "2026-06-21T11:28:06.720Z"
  },
  {
    "icao": "FR-0469",
    "name": "Kogenheim Ultralight Airfield",
    "lat": 48.322866,
    "lng": 7.535108,
    "elevationFt": 528,
    "runways": [
      {
        "ident": "02",
        "headingMag": 20,
        "lengthFt": 591,
        "surface": "grass"
      },
      {
        "ident": "20",
        "headingMag": 200,
        "lengthFt": 591,
        "surface": "grass"
      }
    ],
    "frequencies": [],
    "updatedAt": "2026-06-21T11:28:06.720Z"
  },
  {
    "icao": "FR-0470",
    "name": "Albé-Val de Villé Airfield",
    "lat": 48.349158,
    "lng": 7.330171,
    "elevationFt": 1247,
    "runways": [],
    "frequencies": [],
    "updatedAt": "2026-06-21T11:28:06.720Z"
  },
  {
    "icao": "FR-0471",
    "name": "Salmbach Ultralight Airfield",
    "lat": 48.967949,
    "lng": 8.070563,
    "elevationFt": 508,
    "runways": [],
    "frequencies": [],
    "updatedAt": "2026-06-21T11:28:06.720Z"
  },
  {
    "icao": "FR-0472",
    "name": "Wissembourg Ultralight Airfield",
    "lat": 48.9925,
    "lng": 7.975833,
    "elevationFt": 574,
    "runways": [],
    "frequencies": [],
    "updatedAt": "2026-06-21T11:28:06.720Z"
  },
  {
    "icao": "FR-0473",
    "name": "Batzendorf Ultralight Airfield",
    "lat": 48.803016,
    "lng": 7.726527,
    "elevationFt": 560,
    "runways": [],
    "frequencies": [],
    "updatedAt": "2026-06-21T11:28:06.720Z"
  },
  {
    "icao": "FR-0474",
    "name": "Aérodrome de l'Emonière",
    "lat": 47.05997,
    "lng": -1.35325,
    "elevationFt": 0,
    "runways": [],
    "frequencies": [],
    "updatedAt": "2026-06-21T11:28:06.720Z"
  },
  {
    "icao": "FR-0475",
    "name": "Évaux Airfield",
    "lat": 46.168657,
    "lng": 2.432184,
    "elevationFt": 1512,
    "runways": [
      {
        "ident": "14",
        "headingMag": 140,
        "lengthFt": 4101,
        "surface": "grass"
      },
      {
        "ident": "32",
        "headingMag": 320,
        "lengthFt": 4101,
        "surface": "grass"
      }
    ],
    "frequencies": [],
    "updatedAt": "2026-06-21T11:28:06.720Z"
  },
  {
    "icao": "FR-0477",
    "name": "Vol d'Oiseau Ultralight Airfield",
    "lat": 45.690886,
    "lng": -1.005394,
    "elevationFt": 0,
    "runways": [],
    "frequencies": [],
    "updatedAt": "2026-06-21T11:28:06.720Z"
  },
  {
    "icao": "FR-0478",
    "name": "Aérodrome de Cossé le Vivien",
    "lat": 47.97263,
    "lng": -0.91864,
    "elevationFt": 0,
    "runways": [],
    "frequencies": [],
    "updatedAt": "2026-06-21T11:28:06.720Z"
  },
  {
    "icao": "FR-0479",
    "name": "Joigny Ultralight Airfield",
    "lat": 47.16895,
    "lng": 2.75894,
    "elevationFt": 0,
    "runways": [],
    "frequencies": [],
    "updatedAt": "2026-06-21T11:28:06.720Z"
  },
  {
    "icao": "FR-0480",
    "name": "Cizay-la-Madeleine UL",
    "lat": 47.17962,
    "lng": -0.15915,
    "elevationFt": 0,
    "runways": [],
    "frequencies": [],
    "updatedAt": "2026-06-21T11:28:06.720Z"
  },
  {
    "icao": "FR-0481",
    "name": "Piste privée de La Cornélie",
    "lat": 46.84447,
    "lng": -1.77088,
    "elevationFt": 0,
    "runways": [],
    "frequencies": [],
    "updatedAt": "2026-06-21T11:28:06.720Z"
  },
  {
    "icao": "FR-0485",
    "name": "Saint-Martin-de-Castillon Airfield",
    "lat": 43.852917,
    "lng": 5.550119,
    "elevationFt": 1082,
    "runways": [],
    "frequencies": [],
    "updatedAt": "2026-06-21T11:28:06.720Z"
  },
  {
    "icao": "FR-0487",
    "name": "Altisurface de Banon",
    "lat": 44.072222,
    "lng": 5.639166,
    "elevationFt": 3723,
    "runways": [
      {
        "ident": "15",
        "headingMag": 150,
        "lengthFt": 1640,
        "surface": "grass"
      },
      {
        "ident": "35",
        "headingMag": 350,
        "lengthFt": 1640,
        "surface": "grass"
      }
    ],
    "frequencies": [],
    "updatedAt": "2026-06-21T11:28:06.720Z"
  },
  {
    "icao": "FR-0488",
    "name": "Chélan",
    "lat": 43.341597,
    "lng": 0.530219,
    "elevationFt": 865,
    "runways": [],
    "frequencies": [],
    "updatedAt": "2026-06-21T11:28:06.720Z"
  },
  {
    "icao": "FR-0489",
    "name": "Chaillé-les-Marais Private Airstrip",
    "lat": 46.40527,
    "lng": -1.03049,
    "elevationFt": 0,
    "runways": [],
    "frequencies": [],
    "updatedAt": "2026-06-21T11:28:06.720Z"
  },
  {
    "icao": "FR-0490",
    "name": "Avaux-Les Bourdons Ultralight Airfield",
    "lat": 49.480697,
    "lng": 4.074769,
    "elevationFt": 374,
    "runways": [
      {
        "ident": "11",
        "headingMag": 110,
        "lengthFt": 1411,
        "surface": "grass"
      },
      {
        "ident": "29",
        "headingMag": 290,
        "lengthFt": 1411,
        "surface": "grass"
      }
    ],
    "frequencies": [],
    "updatedAt": "2026-06-21T11:28:06.720Z"
  },
  {
    "icao": "FR-0491",
    "name": "Régat Ultralight Airfield",
    "lat": 42.98382,
    "lng": 1.894069,
    "elevationFt": 1341,
    "runways": [
      {
        "ident": "10",
        "headingMag": 100,
        "lengthFt": 1312,
        "surface": "grass"
      },
      {
        "ident": "28",
        "headingMag": 280,
        "lengthFt": 1312,
        "surface": "grass"
      }
    ],
    "frequencies": [],
    "updatedAt": "2026-06-21T11:28:06.720Z"
  },
  {
    "icao": "FR-0492",
    "name": "Treigny Ultralight Airfield",
    "lat": 47.550607,
    "lng": 3.196549,
    "elevationFt": 918,
    "runways": [
      {
        "ident": "06",
        "headingMag": 60,
        "lengthFt": 1476,
        "surface": "grass"
      },
      {
        "ident": "24",
        "headingMag": 240,
        "lengthFt": 1476,
        "surface": "grass"
      }
    ],
    "frequencies": [
      {
        "type": "Radio",
        "description": "",
        "frequencyMhz": 123.5
      }
    ],
    "updatedAt": "2026-06-21T11:28:06.720Z"
  },
  {
    "icao": "FR-0493",
    "name": "Perreux Airfield",
    "lat": 47.874976,
    "lng": 3.135556,
    "elevationFt": 610,
    "runways": [
      {
        "ident": "08",
        "headingMag": 80,
        "lengthFt": 820,
        "surface": "grass"
      },
      {
        "ident": "26",
        "headingMag": 260,
        "lengthFt": 820,
        "surface": "grass"
      }
    ],
    "frequencies": [],
    "updatedAt": "2026-06-21T11:28:06.720Z"
  },
  {
    "icao": "FR-0494",
    "name": "Genevrelle à Maisse Airfield",
    "lat": 48.387512,
    "lng": 2.349953,
    "elevationFt": 420,
    "runways": [
      {
        "ident": "16",
        "headingMag": 160,
        "lengthFt": 656,
        "surface": "grass"
      },
      {
        "ident": "34",
        "headingMag": 340,
        "lengthFt": 656,
        "surface": "grass"
      }
    ],
    "frequencies": [],
    "updatedAt": "2026-06-21T11:28:06.720Z"
  },
  {
    "icao": "FR-0495",
    "name": "Base Paramoteurs de Boigny-Méréville",
    "lat": 48.329414,
    "lng": 2.088829,
    "elevationFt": 436,
    "runways": [],
    "frequencies": [],
    "updatedAt": "2026-06-21T11:28:06.720Z"
  },
  {
    "icao": "FR-0496",
    "name": "Avernes Paramotor Airfield",
    "lat": 49.10568,
    "lng": 1.87907,
    "elevationFt": 456,
    "runways": [],
    "frequencies": [],
    "updatedAt": "2026-06-21T11:28:06.720Z"
  },
  {
    "icao": "FR-0499",
    "name": "Les Ailes d'Eure et Loir Airfield",
    "lat": 48.59244,
    "lng": 1.53759,
    "elevationFt": 480,
    "runways": [
      {
        "ident": "15",
        "headingMag": 150,
        "lengthFt": 1837,
        "surface": "grass"
      },
      {
        "ident": "35",
        "headingMag": 350,
        "lengthFt": 1837,
        "surface": "grass"
      }
    ],
    "frequencies": [],
    "updatedAt": "2026-06-21T11:28:06.720Z"
  },
  {
    "icao": "FR-0500",
    "name": "Écrosnes ULM",
    "lat": 48.561187,
    "lng": 1.730196,
    "elevationFt": 520,
    "runways": [
      {
        "ident": "13",
        "headingMag": 130,
        "lengthFt": 722,
        "surface": "grass"
      },
      {
        "ident": "31",
        "headingMag": 310,
        "lengthFt": 722,
        "surface": "grass"
      }
    ],
    "frequencies": [],
    "updatedAt": "2026-06-21T11:28:06.720Z"
  },
  {
    "icao": "FR-0501",
    "name": "Base ULM du Le Gault-Saint-Denis",
    "lat": 48.218818,
    "lng": 1.496185,
    "elevationFt": 446,
    "runways": [
      {
        "ident": "18",
        "headingMag": 180,
        "lengthFt": 1148,
        "surface": "grass"
      },
      {
        "ident": "36",
        "headingMag": 360,
        "lengthFt": 1148,
        "surface": "grass"
      }
    ],
    "frequencies": [],
    "updatedAt": "2026-06-21T11:28:06.720Z"
  },
  {
    "icao": "FR-0502",
    "name": "Zoufftgen Airfield",
    "lat": 49.449166,
    "lng": 6.125555,
    "elevationFt": 750,
    "runways": [
      {
        "ident": "15",
        "headingMag": 150,
        "lengthFt": 1312,
        "surface": "grass"
      },
      {
        "ident": "33",
        "headingMag": 330,
        "lengthFt": 1312,
        "surface": "grass"
      }
    ],
    "frequencies": [
      {
        "type": "Auto Information",
        "description": "Zoufftgen",
        "frequencyMhz": 123.5
      }
    ],
    "updatedAt": "2026-06-21T11:28:06.720Z"
  },
  {
    "icao": "FR-0503",
    "name": "Mouy Airfield",
    "lat": 49.313914,
    "lng": 2.298397,
    "elevationFt": 371,
    "runways": [],
    "frequencies": [],
    "updatedAt": "2026-06-21T11:28:06.720Z"
  },
  {
    "icao": "FR-0504",
    "name": "La Trétoire Ultralight Airfield",
    "lat": 48.86822,
    "lng": 3.24902,
    "elevationFt": 0,
    "runways": [],
    "frequencies": [],
    "updatedAt": "2026-06-21T11:28:06.720Z"
  },
  {
    "icao": "FR-0506",
    "name": "Chevry-Cossigny Paramotor Field",
    "lat": 48.708408,
    "lng": 2.645881,
    "elevationFt": 328,
    "runways": [],
    "frequencies": [],
    "updatedAt": "2026-06-21T11:28:06.720Z"
  },
  {
    "icao": "FR-0507",
    "name": "Boulogne-sur-Mer - Alprech Aerodrome",
    "lat": 50.69512,
    "lng": 1.56871,
    "elevationFt": 187,
    "runways": [
      {
        "ident": "10",
        "headingMag": 100,
        "lengthFt": 1804,
        "surface": "grass"
      },
      {
        "ident": "28",
        "headingMag": 280,
        "lengthFt": 1804,
        "surface": "grass"
      }
    ],
    "frequencies": [],
    "updatedAt": "2026-06-21T11:28:06.720Z"
  },
  {
    "icao": "FR-0511",
    "name": "Chamonet Airfield",
    "lat": 45.797877,
    "lng": 5.624628,
    "elevationFt": 1250,
    "runways": [
      {
        "ident": "17",
        "headingMag": 170,
        "lengthFt": 1968,
        "surface": "grass"
      },
      {
        "ident": "35",
        "headingMag": 350,
        "lengthFt": 1968,
        "surface": "grass"
      }
    ],
    "frequencies": [],
    "updatedAt": "2026-06-21T11:28:06.720Z"
  },
  {
    "icao": "FR-0512",
    "name": "Malafretaz Ultralight Airfield",
    "lat": 46.333642,
    "lng": 5.140369,
    "elevationFt": 640,
    "runways": [
      {
        "ident": "09",
        "headingMag": 90,
        "lengthFt": 1312,
        "surface": "grass"
      },
      {
        "ident": "27",
        "headingMag": 270,
        "lengthFt": 1312,
        "surface": "grass"
      }
    ],
    "frequencies": [],
    "updatedAt": "2026-06-21T11:28:06.720Z"
  },
  {
    "icao": "FR-0513",
    "name": "Gite de l'Aviateur Ultralight Airfield",
    "lat": 46.40247,
    "lng": 5.046324,
    "elevationFt": 673,
    "runways": [
      {
        "ident": "01",
        "headingMag": 10,
        "lengthFt": 1476,
        "surface": "grass"
      },
      {
        "ident": "19",
        "headingMag": 190,
        "lengthFt": 1476,
        "surface": "grass"
      }
    ],
    "frequencies": [],
    "updatedAt": "2026-06-21T11:28:06.720Z"
  },
  {
    "icao": "FR-0514",
    "name": "Base ULM de Chaneins",
    "lat": 46.106504,
    "lng": 4.851045,
    "elevationFt": 800,
    "runways": [
      {
        "ident": "01",
        "headingMag": 10,
        "lengthFt": 984,
        "surface": "grass"
      },
      {
        "ident": "19",
        "headingMag": 190,
        "lengthFt": 984,
        "surface": "grass"
      }
    ],
    "frequencies": [],
    "updatedAt": "2026-06-21T11:28:06.720Z"
  },
  {
    "icao": "FR-0515",
    "name": "Talissieu Airfield",
    "lat": 45.871584,
    "lng": 5.726938,
    "elevationFt": 1433,
    "runways": [
      {
        "ident": "16",
        "headingMag": 160,
        "lengthFt": 492,
        "surface": "grass"
      },
      {
        "ident": "34",
        "headingMag": 340,
        "lengthFt": 492,
        "surface": "grass"
      }
    ],
    "frequencies": [],
    "updatedAt": "2026-06-21T11:28:06.720Z"
  },
  {
    "icao": "FR-0516",
    "name": "Mionnay Ultralight Airfield",
    "lat": 45.900511,
    "lng": 4.896242,
    "elevationFt": 987,
    "runways": [],
    "frequencies": [],
    "updatedAt": "2026-06-21T11:28:06.720Z"
  },
  {
    "icao": "FR-0517",
    "name": "Les Ailes de Sergy ULM",
    "lat": 46.25967,
    "lng": 6.023689,
    "elevationFt": 1509,
    "runways": [
      {
        "ident": "02",
        "headingMag": 20,
        "lengthFt": 1378,
        "surface": "grass"
      },
      {
        "ident": "20",
        "headingMag": 200,
        "lengthFt": 1378,
        "surface": "grass"
      }
    ],
    "frequencies": [],
    "updatedAt": "2026-06-21T11:28:06.720Z"
  },
  {
    "icao": "FR-0518",
    "name": "Base ULM de Polliat",
    "lat": 46.255832,
    "lng": 5.149601,
    "elevationFt": 718,
    "runways": [
      {
        "ident": "16",
        "headingMag": 160,
        "lengthFt": 1312,
        "surface": "grass"
      },
      {
        "ident": "34",
        "headingMag": 340,
        "lengthFt": 1312,
        "surface": "grass"
      }
    ],
    "frequencies": [],
    "updatedAt": "2026-06-21T11:28:06.720Z"
  },
  {
    "icao": "FR-0519",
    "name": "Base ULM d'Izenave",
    "lat": 46.027516,
    "lng": 5.5239,
    "elevationFt": 2280,
    "runways": [
      {
        "ident": "16",
        "headingMag": 160,
        "lengthFt": 984,
        "surface": "grass"
      },
      {
        "ident": "34",
        "headingMag": 340,
        "lengthFt": 984,
        "surface": "grass"
      }
    ],
    "frequencies": [],
    "updatedAt": "2026-06-21T11:28:06.720Z"
  },
  {
    "icao": "FR-0520",
    "name": "Aérodrome de Coutigny-Sérigné",
    "lat": 46.489411,
    "lng": -0.87101,
    "elevationFt": 144,
    "runways": [],
    "frequencies": [],
    "updatedAt": "2026-06-21T11:28:06.720Z"
  },
  {
    "icao": "FR-0521",
    "name": "L'Arpette Altisurface",
    "lat": 45.412882,
    "lng": 6.516073,
    "elevationFt": 6200,
    "runways": [
      {
        "ident": "02",
        "headingMag": 20,
        "lengthFt": 820,
        "surface": "grass"
      },
      {
        "ident": "20",
        "headingMag": 200,
        "lengthFt": 820,
        "surface": "grass"
      }
    ],
    "frequencies": [],
    "updatedAt": "2026-06-21T11:28:06.720Z"
  },
  {
    "icao": "FR-0522",
    "name": "Aérodrome de Liorac sur Louyre",
    "lat": 44.918681,
    "lng": 0.645777,
    "elevationFt": 518,
    "runways": [
      {
        "ident": "06",
        "headingMag": 60,
        "lengthFt": 1476,
        "surface": "grass"
      },
      {
        "ident": "24",
        "headingMag": 240,
        "lengthFt": 1476,
        "surface": "grass"
      }
    ],
    "frequencies": [],
    "updatedAt": "2026-06-21T11:28:06.720Z"
  },
  {
    "icao": "FR-0523",
    "name": "Aérodrome d'Argentine",
    "lat": 45.466925,
    "lng": 0.386779,
    "elevationFt": 468,
    "runways": [
      {
        "ident": "13",
        "headingMag": 130,
        "lengthFt": 2100,
        "surface": "grass"
      },
      {
        "ident": "31",
        "headingMag": 310,
        "lengthFt": 2100,
        "surface": "grass"
      }
    ],
    "frequencies": [],
    "updatedAt": "2026-06-21T11:28:06.720Z"
  },
  {
    "icao": "FR-0524",
    "name": "Aérodrome de Saint Crépin Carlucet",
    "lat": 44.967076,
    "lng": 1.251023,
    "elevationFt": 840,
    "runways": [
      {
        "ident": "06",
        "headingMag": 60,
        "lengthFt": 1640,
        "surface": "grass"
      },
      {
        "ident": "24",
        "headingMag": 240,
        "lengthFt": 1640,
        "surface": "grass"
      }
    ],
    "frequencies": [],
    "updatedAt": "2026-06-21T11:28:06.720Z"
  },
  {
    "icao": "FR-0525",
    "name": "Frévent ULM",
    "lat": 50.278098,
    "lng": 2.302623,
    "elevationFt": 438,
    "runways": [],
    "frequencies": [],
    "updatedAt": "2026-06-21T11:28:06.720Z"
  },
  {
    "icao": "FR-0526",
    "name": "Mondreville Ultralight Airfield",
    "lat": 48.168611,
    "lng": 2.597778,
    "elevationFt": 351,
    "runways": [],
    "frequencies": [],
    "updatedAt": "2026-06-21T11:28:06.720Z"
  },
  {
    "icao": "FR-0527",
    "name": "Base ULM de Val-Revermont",
    "lat": 46.30637,
    "lng": 5.3796,
    "elevationFt": 0,
    "runways": [],
    "frequencies": [],
    "updatedAt": "2026-06-21T11:28:06.720Z"
  },
  {
    "icao": "FR-0528",
    "name": "Pleucadeuc private airfield",
    "lat": 47.78777,
    "lng": -2.36109,
    "elevationFt": 0,
    "runways": [],
    "frequencies": [],
    "updatedAt": "2026-06-21T11:28:06.720Z"
  },
  {
    "icao": "FR-0533",
    "name": "Ebersheim Ultralight Airfield",
    "lat": 48.27802,
    "lng": 7.49125,
    "elevationFt": 545,
    "runways": [],
    "frequencies": [],
    "updatedAt": "2026-06-21T11:28:06.720Z"
  },
  {
    "icao": "FR-0535",
    "name": "Cann'Air ULM",
    "lat": 49.34389,
    "lng": 6.28805,
    "elevationFt": 840,
    "runways": [
      {
        "ident": "15",
        "headingMag": 150,
        "lengthFt": 1312,
        "surface": "grass"
      },
      {
        "ident": "33",
        "headingMag": 330,
        "lengthFt": 1312,
        "surface": "grass"
      }
    ],
    "frequencies": [],
    "updatedAt": "2026-06-21T11:28:06.720Z"
  },
  {
    "icao": "FR-0537",
    "name": "Micheville-Villerupt Airfield",
    "lat": 49.48486,
    "lng": 5.9181,
    "elevationFt": 1305,
    "runways": [],
    "frequencies": [],
    "updatedAt": "2026-06-21T11:28:06.720Z"
  },
  {
    "icao": "FR-0538",
    "name": "Saulnois Ultralight Aeroclub",
    "lat": 48.85632,
    "lng": 6.43562,
    "elevationFt": 956,
    "runways": [],
    "frequencies": [],
    "updatedAt": "2026-06-21T11:28:06.720Z"
  },
  {
    "icao": "FR-0539",
    "name": "Saint-Avold Airfield",
    "lat": 49.10222,
    "lng": 6.735,
    "elevationFt": 1010,
    "runways": [],
    "frequencies": [],
    "updatedAt": "2026-06-21T11:28:06.720Z"
  },
  {
    "icao": "FR-0540",
    "name": "Trois Forêts Ultralight Airfield",
    "lat": 48.65195,
    "lng": 6.93542,
    "elevationFt": 1050,
    "runways": [],
    "frequencies": [],
    "updatedAt": "2026-06-21T11:28:06.720Z"
  },
  {
    "icao": "FR-0541",
    "name": "Les Chateaux Ultralight Airfield",
    "lat": 47.31935,
    "lng": 1.07017,
    "elevationFt": 0,
    "runways": [],
    "frequencies": [],
    "updatedAt": "2026-06-21T11:28:06.720Z"
  },
  {
    "icao": "FR-0542",
    "name": "Zeurange ULM",
    "lat": 49.39264,
    "lng": 6.54441,
    "elevationFt": 974,
    "runways": [],
    "frequencies": [],
    "updatedAt": "2026-06-21T11:28:06.720Z"
  },
  {
    "icao": "FR-0544",
    "name": "Rémeling UL",
    "lat": 49.41169,
    "lng": 6.47624,
    "elevationFt": 1017,
    "runways": [],
    "frequencies": [],
    "updatedAt": "2026-06-21T11:28:06.720Z"
  },
  {
    "icao": "FR-0546",
    "name": "Hargarten UL",
    "lat": 49.21966,
    "lng": 6.58702,
    "elevationFt": 1050,
    "runways": [],
    "frequencies": [],
    "updatedAt": "2026-06-21T11:28:06.720Z"
  },
  {
    "icao": "FR-0547",
    "name": "Bambi Air Club",
    "lat": 49.1145,
    "lng": 6.60587,
    "elevationFt": 1320,
    "runways": [],
    "frequencies": [],
    "updatedAt": "2026-06-21T11:28:06.720Z"
  },
  {
    "icao": "FR-0559",
    "name": "Lœuilly Airfield",
    "lat": 49.76532,
    "lng": 2.21518,
    "elevationFt": 505,
    "runways": [],
    "frequencies": [],
    "updatedAt": "2026-06-21T11:28:06.720Z"
  },
  {
    "icao": "FR-0560",
    "name": "Savoy Paraglider Landing Field",
    "lat": 45.92726,
    "lng": 6.86762,
    "elevationFt": 3435,
    "runways": [],
    "frequencies": [],
    "updatedAt": "2026-06-21T11:28:06.720Z"
  },
  {
    "icao": "FR-0562",
    "name": "Vieux-Ferrette Airfield",
    "lat": 47.515833,
    "lng": 7.306944,
    "elevationFt": 1499,
    "runways": [],
    "frequencies": [],
    "updatedAt": "2026-06-21T11:28:06.720Z"
  },
  {
    "icao": "FR-0563",
    "name": "Pillac Airfield",
    "lat": 45.331667,
    "lng": 0.184722,
    "elevationFt": 335,
    "runways": [],
    "frequencies": [],
    "updatedAt": "2026-06-21T11:28:06.720Z"
  },
  {
    "icao": "FR-0564",
    "name": "Veauce Airfield",
    "lat": 46.173151,
    "lng": 3.059489,
    "elevationFt": 1570,
    "runways": [
      {
        "ident": "12",
        "headingMag": 120,
        "lengthFt": 984,
        "surface": "grass"
      },
      {
        "ident": "30",
        "headingMag": 300,
        "lengthFt": 984,
        "surface": "grass"
      }
    ],
    "frequencies": [],
    "updatedAt": "2026-06-21T11:28:06.720Z"
  },
  {
    "icao": "FR-0565",
    "name": "La Tuilière Airfield",
    "lat": 46.532778,
    "lng": 3.118333,
    "elevationFt": 860,
    "runways": [],
    "frequencies": [],
    "updatedAt": "2026-06-21T11:28:06.720Z"
  },
  {
    "icao": "FR-0566",
    "name": "Sainte-Croix-du-Verdon Airfield",
    "lat": 43.778611,
    "lng": 6.159722,
    "elevationFt": 2190,
    "runways": [],
    "frequencies": [],
    "updatedAt": "2026-06-21T11:28:06.720Z"
  },
  {
    "icao": "FR-0567",
    "name": "Omaha Beach Airfield",
    "lat": 49.353231,
    "lng": -0.843067,
    "elevationFt": 203,
    "runways": [
      {
        "ident": "17",
        "headingMag": 170,
        "lengthFt": 984,
        "surface": "grass"
      },
      {
        "ident": "35",
        "headingMag": 350,
        "lengthFt": 984,
        "surface": "grass"
      }
    ],
    "frequencies": [],
    "updatedAt": "2026-06-21T11:28:06.720Z"
  },
  {
    "icao": "FR-0568",
    "name": "Rouvres Airfield",
    "lat": 49.02,
    "lng": -0.198333,
    "elevationFt": 345,
    "runways": [],
    "frequencies": [],
    "updatedAt": "2026-06-21T11:28:06.720Z"
  },
  {
    "icao": "FR-0569",
    "name": "Fontaine Simon Airfield",
    "lat": 48.506027,
    "lng": 0.991064,
    "elevationFt": 689,
    "runways": [
      {
        "ident": "06",
        "headingMag": 60,
        "lengthFt": 3281,
        "surface": "grass"
      },
      {
        "ident": "24",
        "headingMag": 240,
        "lengthFt": 3281,
        "surface": "grass"
      }
    ],
    "frequencies": [],
    "updatedAt": "2026-06-21T11:28:06.720Z"
  },
  {
    "icao": "FR-0570",
    "name": "Banelle Ultralight Airfield",
    "lat": 46.124953,
    "lng": 3.286886,
    "elevationFt": 1165,
    "runways": [
      {
        "ident": "01",
        "headingMag": 10,
        "lengthFt": 984,
        "surface": "grass"
      },
      {
        "ident": "19",
        "headingMag": 190,
        "lengthFt": 984,
        "surface": "grass"
      }
    ],
    "frequencies": [],
    "updatedAt": "2026-06-21T11:28:06.720Z"
  },
  {
    "icao": "FR-0571",
    "name": "Saint-Fargeol Les Fougères Airfield",
    "lat": 46.142669,
    "lng": 2.612133,
    "elevationFt": 1640,
    "runways": [
      {
        "ident": "01",
        "headingMag": 10,
        "lengthFt": 919,
        "surface": "grass"
      },
      {
        "ident": "16",
        "headingMag": 160,
        "lengthFt": 919,
        "surface": "grass"
      }
    ],
    "frequencies": [],
    "updatedAt": "2026-06-21T11:28:06.720Z"
  },
  {
    "icao": "FR-0572",
    "name": "Base ULM La Bouble",
    "lat": 46.218609,
    "lng": 2.952293,
    "elevationFt": 1650,
    "runways": [
      {
        "ident": "01",
        "headingMag": 10,
        "lengthFt": 1332,
        "surface": "grass"
      },
      {
        "ident": "19",
        "headingMag": 190,
        "lengthFt": 1332,
        "surface": "grass"
      }
    ],
    "frequencies": [],
    "updatedAt": "2026-06-21T11:28:06.720Z"
  },
  {
    "icao": "FR-0573",
    "name": "Hommes Volants Ultralight Airfield",
    "lat": 47.418534,
    "lng": 0.323495,
    "elevationFt": 285,
    "runways": [
      {
        "ident": "17",
        "headingMag": 170,
        "lengthFt": 1600,
        "surface": "grass"
      },
      {
        "ident": "35",
        "headingMag": 350,
        "lengthFt": 1600,
        "surface": "grass"
      }
    ],
    "frequencies": [
      {
        "type": "Auto Info ULM",
        "description": "",
        "frequencyMhz": 125.335
      }
    ],
    "updatedAt": "2026-06-21T11:28:06.720Z"
  },
  {
    "icao": "FR-0574",
    "name": "Torreilles Airfield",
    "lat": 42.746077,
    "lng": 3.015628,
    "elevationFt": 10,
    "runways": [
      {
        "ident": "01",
        "headingMag": 10,
        "lengthFt": 1640,
        "surface": "grass"
      },
      {
        "ident": "19",
        "headingMag": 190,
        "lengthFt": 1640,
        "surface": "grass"
      },
      {
        "ident": "13",
        "headingMag": 130,
        "lengthFt": 1312,
        "surface": "grass"
      },
      {
        "ident": "31",
        "headingMag": 310,
        "lengthFt": 1312,
        "surface": "grass"
      }
    ],
    "frequencies": [],
    "updatedAt": "2026-06-21T11:28:06.720Z"
  },
  {
    "icao": "FR-0575",
    "name": "Ulm Saint Couat Airfield",
    "lat": 43.211111,
    "lng": 2.646389,
    "elevationFt": 307,
    "runways": [],
    "frequencies": [],
    "updatedAt": "2026-06-21T11:28:06.720Z"
  },
  {
    "icao": "FR-0576",
    "name": "Beaugaillard Airfield",
    "lat": 43.178611,
    "lng": 1.951667,
    "elevationFt": 1007,
    "runways": [],
    "frequencies": [],
    "updatedAt": "2026-06-21T11:28:06.720Z"
  },
  {
    "icao": "FR-0577",
    "name": "Argeliers Airfield",
    "lat": 43.308333,
    "lng": 2.893333,
    "elevationFt": 140,
    "runways": [],
    "frequencies": [],
    "updatedAt": "2026-06-21T11:28:06.720Z"
  },
  {
    "icao": "FR-0578",
    "name": "Le Reuilh Airfield",
    "lat": 43.192778,
    "lng": 1.978889,
    "elevationFt": 1000,
    "runways": [],
    "frequencies": [],
    "updatedAt": "2026-06-21T11:28:06.720Z"
  },
  {
    "icao": "FR-0579",
    "name": "Puichéric Airfield",
    "lat": 43.226389,
    "lng": 2.588333,
    "elevationFt": 170,
    "runways": [],
    "frequencies": [],
    "updatedAt": "2026-06-21T11:28:06.720Z"
  },
  {
    "icao": "FR-0580",
    "name": "Thérondels Douzalbats Airfield",
    "lat": 44.893056,
    "lng": 2.718056,
    "elevationFt": 3068,
    "runways": [],
    "frequencies": [],
    "updatedAt": "2026-06-21T11:28:06.720Z"
  },
  {
    "icao": "FR-0582",
    "name": "La Boissière Airfield",
    "lat": 49.124774,
    "lng": 0.142758,
    "elevationFt": 540,
    "runways": [],
    "frequencies": [],
    "updatedAt": "2026-06-21T11:28:06.720Z"
  },
  {
    "icao": "FR-0583",
    "name": "Poullaouen Le Stancou Airfield",
    "lat": 48.357222,
    "lng": -3.663333,
    "elevationFt": 492,
    "runways": [],
    "frequencies": [],
    "updatedAt": "2026-06-21T11:28:06.720Z"
  },
  {
    "icao": "FR-0584",
    "name": "domaine Aliso Rossi Airfield",
    "lat": 42.646944,
    "lng": 9.288056,
    "elevationFt": 49,
    "runways": [],
    "frequencies": [],
    "updatedAt": "2026-06-21T11:28:06.720Z"
  },
  {
    "icao": "FR-0585",
    "name": "Neuvy le Roi Airfield",
    "lat": 47.586667,
    "lng": 0.628611,
    "elevationFt": 400,
    "runways": [],
    "frequencies": [],
    "updatedAt": "2026-06-21T11:28:06.720Z"
  },
  {
    "icao": "FR-0586",
    "name": "Orbigny Les Pallis Airfield",
    "lat": 47.221389,
    "lng": 1.285556,
    "elevationFt": 528,
    "runways": [],
    "frequencies": [],
    "updatedAt": "2026-06-21T11:28:06.720Z"
  },
  {
    "icao": "FR-0587",
    "name": "Loches Airfield",
    "lat": 47.153889,
    "lng": 1.014167,
    "elevationFt": 390,
    "runways": [],
    "frequencies": [],
    "updatedAt": "2026-06-21T11:28:06.720Z"
  },
  {
    "icao": "FR-0588",
    "name": "Morand Airfield",
    "lat": 47.537222,
    "lng": 1.016944,
    "elevationFt": 377,
    "runways": [],
    "frequencies": [],
    "updatedAt": "2026-06-21T11:28:06.720Z"
  },
  {
    "icao": "FR-0589",
    "name": "Roanne Mably Airfield",
    "lat": 46.08561,
    "lng": 4.086736,
    "elevationFt": 895,
    "runways": [],
    "frequencies": [],
    "updatedAt": "2026-06-21T11:28:06.720Z"
  },
  {
    "icao": "FR-0590",
    "name": "L'Isle sur Tarn Airfield",
    "lat": 43.856944,
    "lng": 1.820833,
    "elevationFt": 394,
    "runways": [],
    "frequencies": [],
    "updatedAt": "2026-06-21T11:28:06.720Z"
  },
  {
    "icao": "FR-0591",
    "name": "Albi Castelvert Airfield",
    "lat": 43.83,
    "lng": 2.121111,
    "elevationFt": 800,
    "runways": [],
    "frequencies": [],
    "updatedAt": "2026-06-21T11:28:06.720Z"
  },
  {
    "icao": "FR-0596",
    "name": "Trimbach Airfield",
    "lat": 48.938056,
    "lng": 8.007778,
    "elevationFt": 574,
    "runways": [],
    "frequencies": [],
    "updatedAt": "2026-06-21T11:28:06.720Z"
  },
  {
    "icao": "FR-0597",
    "name": "Schillersdorf Ultralight Airfield",
    "lat": 48.870833,
    "lng": 7.516944,
    "elevationFt": 676,
    "runways": [],
    "frequencies": [],
    "updatedAt": "2026-06-21T11:28:06.720Z"
  },
  {
    "icao": "FR-0598",
    "name": "Les Cigognes d'Epfig Ultralight Airfield",
    "lat": 48.338333,
    "lng": 7.477778,
    "elevationFt": 552,
    "runways": [],
    "frequencies": [],
    "updatedAt": "2026-06-21T11:28:06.720Z"
  },
  {
    "icao": "FR-0599",
    "name": "Aignes et Puyperoux Airfield",
    "lat": 45.461667,
    "lng": 0.157778,
    "elevationFt": 619,
    "runways": [],
    "frequencies": [],
    "updatedAt": "2026-06-21T11:28:06.720Z"
  },
  {
    "icao": "FR-0600",
    "name": "Champ rose Airfield",
    "lat": 45.356667,
    "lng": 0.109722,
    "elevationFt": 210,
    "runways": [],
    "frequencies": [],
    "updatedAt": "2026-06-21T11:28:06.720Z"
  },
  {
    "icao": "FR-0601",
    "name": "Beaumont Airfield",
    "lat": 44.766111,
    "lng": 0.724722,
    "elevationFt": 508,
    "runways": [],
    "frequencies": [],
    "updatedAt": "2026-06-21T11:28:06.720Z"
  },
  {
    "icao": "FR-0602",
    "name": "Eyrignac Airfield",
    "lat": 44.943056,
    "lng": 1.311944,
    "elevationFt": 820,
    "runways": [],
    "frequencies": [],
    "updatedAt": "2026-06-21T11:28:06.720Z"
  },
  {
    "icao": "FR-0603",
    "name": "Saint Julien Airfield",
    "lat": 44.728611,
    "lng": 0.446111,
    "elevationFt": 449,
    "runways": [],
    "frequencies": [],
    "updatedAt": "2026-06-21T11:28:06.720Z"
  },
  {
    "icao": "FR-0604",
    "name": "Sanet Agonac Airfield",
    "lat": 45.2525,
    "lng": 0.763056,
    "elevationFt": 659,
    "runways": [],
    "frequencies": [],
    "updatedAt": "2026-06-21T11:28:06.720Z"
  },
  {
    "icao": "FR-0605",
    "name": "Ferme Milhac- Oie en Périgord Airfield",
    "lat": 45.113333,
    "lng": 0.9225,
    "elevationFt": 754,
    "runways": [],
    "frequencies": [],
    "updatedAt": "2026-06-21T11:28:06.720Z"
  },
  {
    "icao": "FR-0606",
    "name": "Plazac Airfield",
    "lat": 45.026667,
    "lng": 1.014167,
    "elevationFt": 700,
    "runways": [],
    "frequencies": [],
    "updatedAt": "2026-06-21T11:28:06.720Z"
  },
  {
    "icao": "FR-0607",
    "name": "Thénac Airfield",
    "lat": 44.745278,
    "lng": 0.325556,
    "elevationFt": 328,
    "runways": [],
    "frequencies": [],
    "updatedAt": "2026-06-21T11:28:06.720Z"
  },
  {
    "icao": "FR-0608",
    "name": "Le Pas de l'Aze Airfield",
    "lat": 45.22,
    "lng": 0.478056,
    "elevationFt": 495,
    "runways": [],
    "frequencies": [],
    "updatedAt": "2026-06-21T11:28:06.720Z"
  },
  {
    "icao": "FR-0609",
    "name": "Malbec Airfield",
    "lat": 45.007778,
    "lng": 1.016111,
    "elevationFt": 850,
    "runways": [],
    "frequencies": [],
    "updatedAt": "2026-06-21T11:28:06.720Z"
  },
  {
    "icao": "FR-0610",
    "name": "Sainte Foy Airfield",
    "lat": 44.629444,
    "lng": -0.156667,
    "elevationFt": 217,
    "runways": [],
    "frequencies": [],
    "updatedAt": "2026-06-21T11:28:06.720Z"
  },
  {
    "icao": "FR-0611",
    "name": "Cabanac et Villagrains Airfield",
    "lat": 44.614167,
    "lng": -0.576389,
    "elevationFt": 192,
    "runways": [],
    "frequencies": [],
    "updatedAt": "2026-06-21T11:28:06.720Z"
  },
  {
    "icao": "FR-0612",
    "name": "Campin Airfield",
    "lat": 44.436389,
    "lng": -0.021944,
    "elevationFt": 335,
    "runways": [],
    "frequencies": [],
    "updatedAt": "2026-06-21T11:28:06.720Z"
  },
  {
    "icao": "FR-0613",
    "name": "Cestas Airfield",
    "lat": 44.701944,
    "lng": -0.785278,
    "elevationFt": 192,
    "runways": [],
    "frequencies": [],
    "updatedAt": "2026-06-21T11:28:06.720Z"
  },
  {
    "icao": "FR-0614",
    "name": "ulm air estuaire Airfield",
    "lat": 45.015,
    "lng": -0.498333,
    "elevationFt": 9,
    "runways": [],
    "frequencies": [],
    "updatedAt": "2026-06-21T11:28:06.720Z"
  },
  {
    "icao": "FR-0615",
    "name": "Saint Estèphe Airfield",
    "lat": 45.236111,
    "lng": -0.752222,
    "elevationFt": 6,
    "runways": [],
    "frequencies": [],
    "updatedAt": "2026-06-21T11:28:06.720Z"
  },
  {
    "icao": "FR-0616",
    "name": "Amou Airfield",
    "lat": 43.587222,
    "lng": -0.765278,
    "elevationFt": 250,
    "runways": [],
    "frequencies": [],
    "updatedAt": "2026-06-21T11:28:06.720Z"
  },
  {
    "icao": "FR-0618",
    "name": "Castillonnès Airfield",
    "lat": 44.698611,
    "lng": 0.638889,
    "elevationFt": 394,
    "runways": [],
    "frequencies": [],
    "updatedAt": "2026-06-21T11:28:06.720Z"
  },
  {
    "icao": "FR-0619",
    "name": "Sembas Airfield",
    "lat": 44.3375,
    "lng": 0.649444,
    "elevationFt": 787,
    "runways": [],
    "frequencies": [],
    "updatedAt": "2026-06-21T11:28:06.720Z"
  },
  {
    "icao": "FR-0620",
    "name": "Tremons Airfield",
    "lat": 44.408056,
    "lng": 0.890833,
    "elevationFt": 341,
    "runways": [],
    "frequencies": [],
    "updatedAt": "2026-06-21T11:28:06.720Z"
  },
  {
    "icao": "FR-0621",
    "name": "Saumont Gentieu Airfield",
    "lat": 44.111667,
    "lng": 0.466111,
    "elevationFt": 410,
    "runways": [],
    "frequencies": [],
    "updatedAt": "2026-06-21T11:28:06.720Z"
  },
  {
    "icao": "FR-0622",
    "name": "MIROND'AILES Airfield",
    "lat": 44.599167,
    "lng": 0.341389,
    "elevationFt": 249,
    "runways": [],
    "frequencies": [],
    "updatedAt": "2026-06-21T11:28:06.720Z"
  },
  {
    "icao": "FR-0624",
    "name": "Lamourache Nord Airfield",
    "lat": 44.622778,
    "lng": 0.193333,
    "elevationFt": 364,
    "runways": [
      {
        "ident": "16",
        "headingMag": 160,
        "lengthFt": 360,
        "surface": "grass"
      },
      {
        "ident": "34",
        "headingMag": 340,
        "lengthFt": 360,
        "surface": "grass"
      }
    ],
    "frequencies": [],
    "updatedAt": "2026-06-21T11:28:06.720Z"
  },
  {
    "icao": "FR-0625",
    "name": "Lavardac Airfield",
    "lat": 44.170833,
    "lng": 0.308611,
    "elevationFt": 180,
    "runways": [],
    "frequencies": [],
    "updatedAt": "2026-06-21T11:28:06.720Z"
  },
  {
    "icao": "FR-0626",
    "name": "Lévignac de Guyenne Airfield",
    "lat": 44.619444,
    "lng": 0.231389,
    "elevationFt": 213,
    "runways": [],
    "frequencies": [],
    "updatedAt": "2026-06-21T11:28:06.720Z"
  },
  {
    "icao": "FR-0627",
    "name": "Saint Jean de Duras Airfield",
    "lat": 44.708056,
    "lng": 0.296944,
    "elevationFt": 410,
    "runways": [],
    "frequencies": [],
    "updatedAt": "2026-06-21T11:28:06.720Z"
  },
  {
    "icao": "FR-0628",
    "name": "Villeton Airfield",
    "lat": 44.356944,
    "lng": 0.286111,
    "elevationFt": 85,
    "runways": [],
    "frequencies": [],
    "updatedAt": "2026-06-21T11:28:06.720Z"
  },
  {
    "icao": "FR-0629",
    "name": "Fourques Airfield",
    "lat": 44.466667,
    "lng": 0.161944,
    "elevationFt": 70,
    "runways": [],
    "frequencies": [],
    "updatedAt": "2026-06-21T11:28:06.720Z"
  },
  {
    "icao": "FR-0630",
    "name": "Segalas Airfield",
    "lat": 44.591389,
    "lng": 0.556944,
    "elevationFt": 436,
    "runways": [],
    "frequencies": [],
    "updatedAt": "2026-06-21T11:28:06.720Z"
  },
  {
    "icao": "FR-0631",
    "name": "Caudecoste Airfield",
    "lat": 44.105278,
    "lng": 0.725833,
    "elevationFt": 380,
    "runways": [],
    "frequencies": [],
    "updatedAt": "2026-06-21T11:28:06.720Z"
  },
  {
    "icao": "FR-0632",
    "name": "Fauillet Airfield",
    "lat": 44.419444,
    "lng": 0.295,
    "elevationFt": 100,
    "runways": [],
    "frequencies": [],
    "updatedAt": "2026-06-21T11:28:06.720Z"
  },
  {
    "icao": "FR-0633",
    "name": "Mascar Airfield",
    "lat": 44.649167,
    "lng": 0.818889,
    "elevationFt": 300,
    "runways": [],
    "frequencies": [],
    "updatedAt": "2026-06-21T11:28:06.720Z"
  },
  {
    "icao": "FR-0634",
    "name": "Bouglon Airfield",
    "lat": 44.401389,
    "lng": 0.110833,
    "elevationFt": 246,
    "runways": [],
    "frequencies": [],
    "updatedAt": "2026-06-21T11:28:06.720Z"
  },
  {
    "icao": "FR-0635",
    "name": "Boeil Bezing Airfield",
    "lat": 43.245,
    "lng": -0.213333,
    "elevationFt": 1000,
    "runways": [],
    "frequencies": [],
    "updatedAt": "2026-06-21T11:28:06.720Z"
  },
  {
    "icao": "FR-0636",
    "name": "Gurmençon Airfield",
    "lat": 43.159722,
    "lng": -0.606667,
    "elevationFt": 860,
    "runways": [],
    "frequencies": [],
    "updatedAt": "2026-06-21T11:28:06.720Z"
  },
  {
    "icao": "FR-0637",
    "name": "Maslacq Airfield",
    "lat": 43.446667,
    "lng": -0.695,
    "elevationFt": 256,
    "runways": [],
    "frequencies": [],
    "updatedAt": "2026-06-21T11:28:06.720Z"
  },
  {
    "icao": "FR-0638",
    "name": "Claracq Villa les Palmiers Airfield",
    "lat": 43.494722,
    "lng": -0.288056,
    "elevationFt": 787,
    "runways": [],
    "frequencies": [],
    "updatedAt": "2026-06-21T11:28:06.720Z"
  },
  {
    "icao": "FR-0639",
    "name": "Navarrenx Airfield",
    "lat": 43.340556,
    "lng": -0.710278,
    "elevationFt": 876,
    "runways": [],
    "frequencies": [],
    "updatedAt": "2026-06-21T11:28:06.720Z"
  },
  {
    "icao": "FR-0640",
    "name": "Ozenx Montrestrucq Airfield",
    "lat": 43.433074,
    "lng": -0.80036,
    "elevationFt": 295,
    "runways": [
      {
        "ident": "03",
        "headingMag": 30,
        "lengthFt": 984,
        "surface": "grass"
      },
      {
        "ident": "21",
        "headingMag": 210,
        "lengthFt": 984,
        "surface": "grass"
      }
    ],
    "frequencies": [],
    "updatedAt": "2026-06-21T11:28:06.720Z"
  },
  {
    "icao": "FR-0641",
    "name": "Andoins Airfield",
    "lat": 43.2975,
    "lng": -0.236111,
    "elevationFt": 919,
    "runways": [],
    "frequencies": [],
    "updatedAt": "2026-06-21T11:28:06.720Z"
  },
  {
    "icao": "FR-0642",
    "name": "Sames Airfield",
    "lat": 43.538056,
    "lng": -1.182778,
    "elevationFt": 7,
    "runways": [],
    "frequencies": [],
    "updatedAt": "2026-06-21T11:28:06.720Z"
  },
  {
    "icao": "FR-0643",
    "name": "Malaussanne Airfield",
    "lat": 43.568611,
    "lng": -0.475556,
    "elevationFt": 490,
    "runways": [],
    "frequencies": [],
    "updatedAt": "2026-06-21T11:28:06.720Z"
  },
  {
    "icao": "FR-0644",
    "name": "Sévignacq Airfield",
    "lat": 43.448056,
    "lng": -0.281389,
    "elevationFt": 650,
    "runways": [],
    "frequencies": [],
    "updatedAt": "2026-06-21T11:28:06.720Z"
  },
  {
    "icao": "FR-0645",
    "name": "Saint Pée sur Nivelle Airfield",
    "lat": 43.338889,
    "lng": -1.529444,
    "elevationFt": 302,
    "runways": [],
    "frequencies": [],
    "updatedAt": "2026-06-21T11:28:06.720Z"
  },
  {
    "icao": "FR-0646",
    "name": "Pommevic Airfield",
    "lat": 44.084167,
    "lng": 0.925833,
    "elevationFt": 226,
    "runways": [],
    "frequencies": [],
    "updatedAt": "2026-06-21T11:28:06.720Z"
  },
  {
    "icao": "FR-0647",
    "name": "Dunes Airfield",
    "lat": 44.107778,
    "lng": 0.775,
    "elevationFt": 236,
    "runways": [],
    "frequencies": [],
    "updatedAt": "2026-06-21T11:28:06.720Z"
  },
  {
    "icao": "FR-0648",
    "name": "Boissay Ludovic Airfield",
    "lat": 44.108056,
    "lng": 0.981667,
    "elevationFt": 312,
    "runways": [],
    "frequencies": [],
    "updatedAt": "2026-06-21T11:28:06.720Z"
  },
  {
    "icao": "FR-0649",
    "name": "Mauzens et Miremont Airfield",
    "lat": 44.999722,
    "lng": 0.906389,
    "elevationFt": 800,
    "runways": [],
    "frequencies": [],
    "updatedAt": "2026-06-21T11:28:06.720Z"
  },
  {
    "icao": "FR-0650",
    "name": "Campsegret Airfield",
    "lat": 44.961111,
    "lng": 0.563889,
    "elevationFt": 567,
    "runways": [],
    "frequencies": [],
    "updatedAt": "2026-06-21T11:28:06.720Z"
  },
  {
    "icao": "FR-0651",
    "name": "Château Vénus Airfield",
    "lat": 44.629167,
    "lng": -0.376944,
    "elevationFt": 70,
    "runways": [],
    "frequencies": [],
    "updatedAt": "2026-06-21T11:28:06.720Z"
  },
  {
    "icao": "FR-0652",
    "name": "Moncouche Airfield",
    "lat": 45.095,
    "lng": 0.637778,
    "elevationFt": 630,
    "runways": [],
    "frequencies": [],
    "updatedAt": "2026-06-21T11:28:06.720Z"
  },
  {
    "icao": "FR-0653",
    "name": "Bouloc Airfield",
    "lat": 44.307778,
    "lng": 1.080556,
    "elevationFt": 745,
    "runways": [],
    "frequencies": [],
    "updatedAt": "2026-06-21T11:28:06.720Z"
  },
  {
    "icao": "FR-0654",
    "name": "Montaigu de Quercy Valprionde Airfield",
    "lat": 44.365,
    "lng": 1.092222,
    "elevationFt": 883,
    "runways": [],
    "frequencies": [],
    "updatedAt": "2026-06-21T11:28:06.720Z"
  },
  {
    "icao": "FR-0655",
    "name": "Tartas Airfield",
    "lat": 43.829722,
    "lng": -0.763056,
    "elevationFt": 173,
    "runways": [],
    "frequencies": [],
    "updatedAt": "2026-06-21T11:28:06.720Z"
  },
  {
    "icao": "FR-0656",
    "name": "Montaigu de Quercy Couloussac Airfield",
    "lat": 44.364167,
    "lng": 1.087222,
    "elevationFt": 882,
    "runways": [],
    "frequencies": [],
    "updatedAt": "2026-06-21T11:28:06.720Z"
  },
  {
    "icao": "FR-0657",
    "name": "Benesse Maremne Airfield",
    "lat": 43.641667,
    "lng": -1.391111,
    "elevationFt": 13,
    "runways": [],
    "frequencies": [],
    "updatedAt": "2026-06-21T11:28:06.720Z"
  },
  {
    "icao": "FR-0658",
    "name": "Adventure Paramoteur Alsace Airfield",
    "lat": 48.709167,
    "lng": 7.737222,
    "elevationFt": 459,
    "runways": [],
    "frequencies": [],
    "updatedAt": "2026-06-21T11:28:06.720Z"
  },
  {
    "icao": "FR-0660",
    "name": "Tieleman Aviation Airfield",
    "lat": 45.288333,
    "lng": 0.514167,
    "elevationFt": 509,
    "runways": [],
    "frequencies": [],
    "updatedAt": "2026-06-21T11:28:06.720Z"
  },
  {
    "icao": "FR-0661",
    "name": "Graissac le Faula Airfield",
    "lat": 44.770833,
    "lng": 2.788611,
    "elevationFt": 2800,
    "runways": [],
    "frequencies": [],
    "updatedAt": "2026-06-21T11:28:06.720Z"
  },
  {
    "icao": "FR-0662",
    "name": "Sarrans Cantoin Airfield",
    "lat": 44.826111,
    "lng": 2.843333,
    "elevationFt": 10302,
    "runways": [],
    "frequencies": [],
    "updatedAt": "2026-06-21T11:28:06.720Z"
  },
  {
    "icao": "FR-0663",
    "name": "Le Bruel Airfield",
    "lat": 44.743056,
    "lng": 2.200278,
    "elevationFt": 1427,
    "runways": [],
    "frequencies": [],
    "updatedAt": "2026-06-21T11:28:06.720Z"
  },
  {
    "icao": "FR-0664",
    "name": "Mazeyrat Airfield",
    "lat": 45.108056,
    "lng": 3.503611,
    "elevationFt": 1700,
    "runways": [],
    "frequencies": [],
    "updatedAt": "2026-06-21T11:28:06.720Z"
  },
  {
    "icao": "FR-0665",
    "name": "Charbonnières les Vieilles Airfield",
    "lat": 46.013611,
    "lng": 3.023889,
    "elevationFt": 2067,
    "runways": [],
    "frequencies": [],
    "updatedAt": "2026-06-21T11:28:06.720Z"
  },
  {
    "icao": "FR-0666",
    "name": "Jayet Gannat Airfield",
    "lat": 46.07082,
    "lng": 3.19923,
    "elevationFt": 1192,
    "runways": [],
    "frequencies": [],
    "updatedAt": "2026-06-21T11:28:06.720Z"
  },
  {
    "icao": "FR-0667",
    "name": "Aubiat Sardon Airfield",
    "lat": 45.979722,
    "lng": 3.2275,
    "elevationFt": 1160,
    "runways": [],
    "frequencies": [],
    "updatedAt": "2026-06-21T11:28:06.720Z"
  },
  {
    "icao": "FR-0668",
    "name": "Grand Prouilhat Airfield",
    "lat": 45.932778,
    "lng": 3.316389,
    "elevationFt": 1010,
    "runways": [],
    "frequencies": [],
    "updatedAt": "2026-06-21T11:28:06.720Z"
  },
  {
    "icao": "FR-0669",
    "name": "Tinhlat Airfield",
    "lat": 45.729722,
    "lng": 3.299444,
    "elevationFt": 1170,
    "runways": [],
    "frequencies": [],
    "updatedAt": "2026-06-21T11:28:06.720Z"
  },
  {
    "icao": "FR-0670",
    "name": "Bort-l'Étang Airfield",
    "lat": 45.7937,
    "lng": 3.435736,
    "elevationFt": 1286,
    "runways": [],
    "frequencies": [],
    "updatedAt": "2026-06-21T11:28:06.720Z"
  },
  {
    "icao": "FR-0671",
    "name": "Mounier Haut Airfield",
    "lat": 46.027222,
    "lng": 3.668611,
    "elevationFt": 2503,
    "runways": [],
    "frequencies": [],
    "updatedAt": "2026-06-21T11:28:06.720Z"
  },
  {
    "icao": "FR-0672",
    "name": "Sailles Saint-Nectaire Airfield",
    "lat": 45.596111,
    "lng": 3.0025,
    "elevationFt": 3018,
    "runways": [],
    "frequencies": [],
    "updatedAt": "2026-06-21T11:28:06.720Z"
  },
  {
    "icao": "FR-0673",
    "name": "Calviac Airfield",
    "lat": 44.927222,
    "lng": 2.068056,
    "elevationFt": 2100,
    "runways": [],
    "frequencies": [],
    "updatedAt": "2026-06-21T11:28:06.720Z"
  },
  {
    "icao": "FR-0674",
    "name": "La Sauvetat Aubusson-d'Auvergne Airfield",
    "lat": 45.756156,
    "lng": 3.583881,
    "elevationFt": 1399,
    "runways": [],
    "frequencies": [],
    "updatedAt": "2026-06-21T11:28:06.720Z"
  },
  {
    "icao": "FR-0675",
    "name": "Moulins le Haut Bois Airfield",
    "lat": 48.001667,
    "lng": -1.352222,
    "elevationFt": 200,
    "runways": [],
    "frequencies": [],
    "updatedAt": "2026-06-21T11:28:06.720Z"
  },
  {
    "icao": "FR-0676",
    "name": "Amanlis Janzé Airfield",
    "lat": 47.993056,
    "lng": -1.491389,
    "elevationFt": 203,
    "runways": [],
    "frequencies": [],
    "updatedAt": "2026-06-21T11:28:06.720Z"
  },
  {
    "icao": "FR-0677",
    "name": "La Baillée sous Champ Fleu Airfield",
    "lat": 48.1875,
    "lng": -1.496389,
    "elevationFt": 171,
    "runways": [],
    "frequencies": [],
    "updatedAt": "2026-06-21T11:28:06.720Z"
  },
  {
    "icao": "FR-0678",
    "name": "Queneleuc Airfield",
    "lat": 48.098333,
    "lng": -2.076389,
    "elevationFt": 246,
    "runways": [],
    "frequencies": [],
    "updatedAt": "2026-06-21T11:28:06.720Z"
  },
  {
    "icao": "FR-0679",
    "name": "Quily Airfield",
    "lat": 47.883333,
    "lng": -2.486944,
    "elevationFt": 436,
    "runways": [],
    "frequencies": [],
    "updatedAt": "2026-06-21T11:28:06.720Z"
  },
  {
    "icao": "FR-0680",
    "name": "Auxey Duresses Airfield",
    "lat": 46.998889,
    "lng": 4.735,
    "elevationFt": 1378,
    "runways": [],
    "frequencies": [],
    "updatedAt": "2026-06-21T11:28:06.720Z"
  },
  {
    "icao": "FR-0681",
    "name": "Chaume-et-Courchamp Airfield",
    "lat": 47.575603,
    "lng": 5.351686,
    "elevationFt": 930,
    "runways": [],
    "frequencies": [],
    "updatedAt": "2026-06-21T11:28:06.720Z"
  },
  {
    "icao": "FR-0682",
    "name": "Dampierre et Flée Airfield",
    "lat": 47.4775,
    "lng": 5.358333,
    "elevationFt": 820,
    "runways": [],
    "frequencies": [],
    "updatedAt": "2026-06-21T11:28:06.720Z"
  },
  {
    "icao": "FR-0684",
    "name": "Souhil Airfield",
    "lat": 47.9225,
    "lng": 4.768611,
    "elevationFt": 792,
    "runways": [],
    "frequencies": [],
    "updatedAt": "2026-06-21T11:28:06.720Z"
  },
  {
    "icao": "FR-0685",
    "name": "Recey Le Mont de Lucey Airfield",
    "lat": 47.794167,
    "lng": 4.855,
    "elevationFt": 1300,
    "runways": [],
    "frequencies": [],
    "updatedAt": "2026-06-21T11:28:06.720Z"
  },
  {
    "icao": "FR-0686",
    "name": "Saint-Romain Airfield",
    "lat": 47.016944,
    "lng": 4.699722,
    "elevationFt": 1790,
    "runways": [],
    "frequencies": [],
    "updatedAt": "2026-06-21T11:28:06.720Z"
  },
  {
    "icao": "FR-0687",
    "name": "Nantoux Airfield",
    "lat": 47.023889,
    "lng": 4.757222,
    "elevationFt": 1138,
    "runways": [],
    "frequencies": [],
    "updatedAt": "2026-06-21T11:28:06.720Z"
  },
  {
    "icao": "FR-0688",
    "name": "Blanot Airfield",
    "lat": 47.173889,
    "lng": 4.233611,
    "elevationFt": 1575,
    "runways": [],
    "frequencies": [],
    "updatedAt": "2026-06-21T11:28:06.720Z"
  },
  {
    "icao": "FR-0689",
    "name": "Ville Langy Airfield",
    "lat": 46.9475,
    "lng": 3.490278,
    "elevationFt": 902,
    "runways": [],
    "frequencies": [],
    "updatedAt": "2026-06-21T11:28:06.720Z"
  },
  {
    "icao": "FR-0690",
    "name": "Champlemy Airfield",
    "lat": 47.290833,
    "lng": 3.363333,
    "elevationFt": 1020,
    "runways": [],
    "frequencies": [],
    "updatedAt": "2026-06-21T11:28:06.720Z"
  },
  {
    "icao": "FR-0691",
    "name": "Luzy Airfield",
    "lat": 46.779167,
    "lng": 3.983333,
    "elevationFt": 920,
    "runways": [],
    "frequencies": [],
    "updatedAt": "2026-06-21T11:28:06.720Z"
  },
  {
    "icao": "FR-0692",
    "name": "Béard Airfield",
    "lat": 46.864722,
    "lng": 3.335833,
    "elevationFt": 770,
    "runways": [],
    "frequencies": [],
    "updatedAt": "2026-06-21T11:28:06.720Z"
  },