id,ident,type,name,latitude_deg,longitude_deg,elevation_ft,continent,country_name,iso_country,region_name,iso_region,local_region,municipality,scheduled_service,gps_code,icao_code,iata_code,local_code,home_link,wikipedia_link,keywords,score,last_updated
4185,LFPG,large_airport,"Charles de Gaulle International Airport",49.00896,2.554117,392,EU,France,FR,Île-de-France,FR-IDF,IDF,"Paris (Roissy-en-France, Val-d'Oise)",1,LFPG,LFPG,CDG,,http://www.aeroportsdeparis.fr/,https://en.wikipedia.org/wiki/Charles_de_Gaulle_Airport,"PAR, Aéroport Roissy-Charles de Gaulle, Roissy Airport",1127475,2026-01-09T15:49:06+00:00
4189,LFPO,large_airport,"Paris-Orly Airport",48.729499,2.358963,291,EU,France,FR,Île-de-France,FR-IDF,IDF,"Paris (Orly, Val-de-Marne)",1,LFPO,LFPO,ORY,,https://www.parisaeroport.fr/orly,https://en.wikipedia.org/wiki/Orly_Airport,,1032775,2026-03-20T09:45:11+00:00
4156,LFMN,large_airport,"Nice-Côte d'Azur Airport",43.658401,7.21587,12,EU,France,FR,Provence-Alpes-Côte-d'Azur,FR-PAC,PAC,"Nice, Alpes-Maritimes",1,LFMN,LFMN,NCE,,https://www.nice.aeroport.fr/en,https://en.wikipedia.org/wiki/C%C3%B4te_d'Azur_International_Airport,,51475,2024-08-01T13:07:35+00:00
4155,LFML,large_airport,"Marseille Provence Airport",43.438088,5.2125,74,EU,France,FR,Provence-Alpes-Côte-d'Azur,FR-PAC,PAC,"Marignane, Bouches-du-Rhône",1,LFML,LFML,MRS,,https://www.marseille.aeroport.fr/,https://en.wikipedia.org/wiki/Marseille_Provence_Airport,,1375,2024-08-01T13:51:14+00:00
4226,LFSB,large_airport,"EuroAirport Basel–Mulhouse–Freiburg",47.60068,7.521117,885,EU,France,FR,"Grand Est",FR-GES,GES,"Bâle / Mulhouse",1,LFSB,LFSB,BSL,,http://www.euroairport.com/,https://en.wikipedia.org/wiki/EuroAirport_Basel-Mulhouse-Freiburg,"MLH, EAP, LSZM, Bâle, Basle",1050,2025-08-18T18:39:33+00:00
4070,LFBO,large_airport,"Toulouse-Blagnac Airport",43.629101,1.36382,499,EU,France,FR,Occitanie,FR-OCC,OCC,Toulouse/Blagnac,1,LFBO,LFBO,TLS,,http://www.toulouse.aeroport.fr/,https://en.wikipedia.org/wiki/Toulouse_Blagnac_International_Airport,Airbus,1675,2026-05-06T12:03:32+00:00
4137,LFLL,large_airport,"Lyon Saint-Exupéry Airport",45.725996,5.090139,821,EU,France,FR,Auvergne-Rhône-Alpes,FR-ARA,ARA,"Colombier-Saugnieu, Rhône",1,LFLL,LFLL,LYS,,https://www.lyonaeroports.com/,https://en.wikipedia.org/wiki/Lyon%E2%80%93Saint-Exup%C3%A9ry_Airport,"Lyon, Saint-Exupéry, Satolas",1000,2024-08-01T13:01:28+00:00
4169,LFOB,large_airport,"Beauvais-Tillé airport",49.454399,2.11278,359,EU,France,FR,Hauts-de-France,FR-HDF,HDF,Beauvais,1,LFOB,LFOB,BVA,,https://www.aeroportparisbeauvais.com/,https://en.wikipedia.org/wiki/Paris_Beauvais_Till%C3%A9_Airport,Beauvais-Tillé,1000,2026-01-18T19:19:19+00:00
4060,LFBD,large_airport,"Bordeaux–Mérignac Airport",44.82865,-0.715356,162,EU,France,FR,Nouvelle-Aquitaine,FR-NAQ,NAQ,Bordeaux,1,LFBD,LFBD,BOD,,https://www.bordeaux.aeroport.fr/,https://en.wikipedia.org/wiki/Bordeaux%E2%80%93M%C3%A9rignac_Airport,,1275,2025-08-18T19:35:17+00:00
4183,LFPB,large_airport,"Paris-Le Bourget International Airport",48.962276,2.436539,218,EU,France,FR,Île-de-France,FR-IDF,IDF,Paris,1,LFPB,LFPB,LBG,,http://www.aeroportsdeparis.fr/,https://en.wikipedia.org/wiki/Le_Bourget_Airport,PAR,1000,2026-01-08T16:04:22+00:00
4221,LFRS,medium_airport,"Nantes Atlantique Airport",47.153198,-1.61073,90,EU,France,FR,Pays-de-la-Loire,FR-PDL,PDL,Nantes,1,LFRS,LFRS,NTE,,https://www.nantes.aeroport.fr/en,https://en.wikipedia.org/wiki/Nantes_Atlantique_Airport,,750,2024-04-12T20:33:01+00:00
4161,LFMT,large_airport,"Montpellier-Méditerranée Airport",43.576199,3.96301,17,EU,France,FR,Occitanie,FR-OCC,OCC,Montpellier/Méditerranée,1,LFMT,LFMT,MPL,,https://www.montpellier.aeroport.fr/,https://en.wikipedia.org/wiki/Montpellier_-_M%C3%A9diterran%C3%A9e_Airport,,1000,2026-03-16T22:47:52+00:00
4238,LFST,large_airport,"Strasbourg Airport",48.5383,7.62823,505,EU,France,FR,"Grand Est",FR-GES,GES,Strasbourg,1,LFST,LFST,SXB,,http://www.strasbourg.aeroport.fr/E/index.php,https://en.wikipedia.org/wiki/Strasbourg_Airport,"BA 124",1000,2026-01-08T18:21:17+00:00
4154,LFMK,medium_airport,"Carcassonne Salvaza Airport",43.216,2.30632,433,EU,France,FR,Occitanie,FR-OCC,OCC,Carcassonne,1,LFMK,LFMK,CCF,,https://www.aeroport-carcassonne.com/,https://en.wikipedia.org/wiki/Carcassonne_Salvaza_Airport,,750,2025-08-18T20:50:49+00:00
4202,LFQQ,large_airport,"Lille Airport",50.566564,3.102429,157,EU,France,FR,Hauts-de-France,FR-HDF,HDF,Lesquin,1,LFQQ,LFQQ,LIL,,https://www.lille.aeroport.fr/home/,https://en.wikipedia.org/wiki/Lille_Airport,"Aéroport de Lille. Lille-Lesquin Airport",1000,2026-01-09T15:54:13+00:00
4055,LFAT,medium_airport,"Le Touquet-Côte d'Opale Airport",50.518284,1.621656,36,EU,France,FR,Hauts-de-France,FR-HDF,HDF,"Le Touquet-Paris-Plage",0,LFAT,LFAT,LTQ,,https://www.aeroport-letouquet.com/,https://en.wikipedia.org/wiki/Le_Touquet_%E2%80%93_C%C3%B4te_d%27Opale_Airport,Paris-Plage,525,2025-10-04T17:46:47+00:00
4151,LFMD,medium_airport,"Cannes Mandelieu Airport",43.547998,6.955176,13,EU,France,FR,Provence-Alpes-Côte-d'Azur,FR-PAC,PAC,Cannes,0,LFMD,LFMD,CEQ,,https://www.cannes.aeroport.fr/,https://en.wikipedia.org/wiki/Cannes_%E2%80%93_Mandelieu_Airport,,750,2025-08-18T15:42:07+00:00
4131,LFLB,medium_airport,"Chambéry Aix les Bains airport",45.6381,5.88023,779,EU,France,FR,Auvergne-Rhône-Alpes,FR-ARA,ARA,Chambéry,1,LFLB,LFLB,CMF,,https://www.chambery-airport.com/en,https://en.wikipedia.org/wiki/Chamb%C3%A9ry_Airport,,750,2025-08-18T15:56:47+00:00
4123,LFKB,large_airport,"Bastia-Poretta International airport",42.5527,9.48373,26,EU,France,FR,Corsica,FR-COR,COR,Bastia,1,LFKB,LFKB,BIA,,https://bastia-aeroport.cci.corsica/,https://en.wikipedia.org/wiki/Bastia_-_Poretta_Airport,,1000,2026-01-12T15:19:43+00:00
4218,LFRN,medium_airport,"Rennes-Saint-Jacques Airport",48.0695,-1.73479,124,EU,France,FR,Brittany,FR-BRE,BRE,"Saint-Jacques-de-la-Lande, Ille-et-Vilaine",1,LFRN,LFRN,RNS,,http://www.rennes.aeroport.fr/,https://en.wikipedia.org/wiki/Rennes_-_Saint-Jacques_Airport,"Rennes Bretagne",750,2024-08-07T14:04:25+00:00
4126,LFKJ,medium_airport,"Ajaccio Napoléon Bonaparte airport",41.923599,8.80292,18,EU,France,FR,Corsica,FR-COR,COR,Ajaccio,1,LFKJ,LFKJ,AJA,,,https://en.wikipedia.org/wiki/Ajaccio_-_Campo_dell'Oro_Airport,,750,2025-08-18T15:43:06+00:00
4077,LFBZ,medium_airport,"Biarritz Pays Basque airport",43.468372,-1.523223,245,EU,France,FR,Nouvelle-Aquitaine,FR-NAQ,NAQ,Biarritz,1,LFBZ,LFBZ,BIQ,,https://biarritz.aeroport.fr/en/,https://en.wikipedia.org/wiki/Biarritz_-_Anglet_-_Bayonne_Airport,,750,2025-08-18T19:08:53+00:00
4142,LFLS,medium_airport,"Grenoble Alpes Isère Airport",45.3629,5.32937,1302,EU,France,FR,Auvergne-Rhône-Alpes,FR-ARA,ARA,Grenoble,1,LFLS,LFLS,GNB,,https://www.grenoble-airport.com/en,https://en.wikipedia.org/wiki/Grenoble-Is%C3%A8re_Airport,,750,2025-08-18T17:20:58+00:00
4064,LFBH,medium_airport,"La Rochelle Île de Ré Airport",46.179199,-1.19528,74,EU,France,FR,Nouvelle-Aquitaine,FR-NAQ,NAQ,"La Rochelle",1,LFBH,LFBH,LRH,,https://www.larochelle.aeroport.fr/en/,https://en.wikipedia.org/wiki/La_Rochelle_-_%C3%8Ele_de_R%C3%A9_Airport,"Laleu Airport",750,2025-08-18T17:29:53+00:00
4158,LFMP,medium_airport,"Perpignan-Rivesaltes (Llabanère) Airport",42.740398,2.87067,144,EU,France,FR,Occitanie,FR-OCC,OCC,Perpignan/Rivesaltes,1,LFMP,LFMP,PGF,,https://www.aeroport-perpignan.com/,https://en.wikipedia.org/wiki/Perpignan_-_Rivesaltes_Airport,,750,2024-04-29T17:12:57+00:00
4148,LFLY,medium_airport,"Lyon Bron Airport",45.727947,4.943991,659,EU,France,FR,Auvergne-Rhône-Alpes,FR-ARA,ARA,"Chassieu, Lyon",0,LFLY,LFLY,LYN,,https://www.lyonaeroports.com/en/lyon-bron,https://en.wikipedia.org/wiki/Lyon%E2%80%93Bron_Airport,,475,2024-08-01T12:54:36+00:00
4163,LFMV,medium_airport,"Avignon Caumont airport",43.907299,4.90183,124,EU,France,FR,Provence-Alpes-Côte-d'Azur,FR-PAC,PAC,Avignon,1,LFMV,LFMV,AVN,,https://avignon.aero/,https://en.wikipedia.org/wiki/Avignon_-_Caumont_Airport,,750,2025-08-18T15:46:35+00:00
4067,LFBL,medium_airport,"Limoges Airport",45.862801,1.17944,1300,EU,France,FR,Nouvelle-Aquitaine,FR-NAQ,NAQ,Limoges/Bellegarde,1,LFBL,LFBL,LIG,,https://www.aeroportlimoges.com/en/,https://en.wikipedia.org/wiki/Limoges_-_Bellegarde_Airport,,750,2024-04-29T17:01:35+00:00
4141,LFLP,medium_airport,"Annecy Meythet airport",45.928947,6.0987,1521,EU,France,FR,Auvergne-Rhône-Alpes,FR-ARA,ARA,Annecy,1,LFLP,LFLP,NCY,,https://www.annecy-airport.com/en,https://en.wikipedia.org/wiki/Annecy_-_Haute-Savoie_-_Mont_Blanc_Airport,Annecy-Meythet,750,2025-08-18T15:45:09+00:00
4125,LFKF,large_airport,"Figari Sud-Corse Airport",41.50185,9.097092,85,EU,France,FR,Corsica,FR-COR,COR,Figari,1,LFKF,LFKF,FSC,,https://figari-aeroport.cci.corsica/,https://en.wikipedia.org/wiki/Figari_Sud-Corse_Airport,,1000,2026-01-18T19:06:18+00:00
4208,LFRD,medium_airport,"Dinard Pleurtuit Saint-Malo airport",48.5877,-2.07996,219,EU,France,FR,Brittany,FR-BRE,BRE,Dinard,1,LFRD,LFRD,DNR,,https://www.dinard.aeroport.fr/en,https://en.wikipedia.org/wiki/Dinard_-_Pleurtuit_-_Saint-Malo_Airport,,750,2025-08-18T17:16:31+00:00
4073,LFBT,medium_airport,"Tarbes-Lourdes-Pyrénées Airport",43.178699,-0.006439,1260,EU,France,FR,Occitanie,FR-OCC,OCC,Tarbes/Lourdes/Pyrénées,1,LFBT,LFBT,LDE,,https://www.tlp.aeroport.fr/,https://en.wikipedia.org/wiki/Tarbes-Lourdes-Pyr%C3%A9n%C3%A9es_Airport,,750,2024-04-13T01:25:13+00:00
4179,LFOT,medium_airport,"Tours Val de Loire Airport",47.432201,0.727606,357,EU,France,FR,"Centre-Val de Loire",FR-CVL,CVL,"Tours, Indre-et-Loire",1,LFOT,LFOT,TUF,,http://www.tours.aeroport.fr/index_en.php,https://en.wikipedia.org/wiki/Tours_Val_de_Loire_Airport,"Aéroport Tours-Val de Loire, Loire Valley",750,2024-08-01T14:18:05+00:00
4241,LFTH,medium_airport,"Toulon-Hyères Airport",43.097301,6.14603,7,EU,France,FR,Provence-Alpes-Côte-d'Azur,FR-PAC,PAC,"Hyères, Var",1,LFTH,LFTH,TLN,,http://toulon-hyeres.aeroport.fr/,https://en.wikipedia.org/wiki/Toulon-Hy%C3%A8res_Airport,"La Palyvestre, Toulon",750,2024-10-30T09:48:03+00:00
4132,LFLC,large_airport,"Clermont-Ferrand Auvergne airport",45.786701,3.16917,1090,EU,France,FR,Auvergne-Rhône-Alpes,FR-ARA,ARA,Clermont-Ferrand,1,LFLC,LFLC,CFE,,https://www.clermont-aeroport.com/en,https://en.wikipedia.org/wiki/Clermont-Ferrand_Auvergne_Airport,,1000,2026-01-30T15:12:41+00:00
4211,LFRG,medium_airport,"Deauville Normandie airport",49.365237,0.154481,479,EU,France,FR,Normandy,FR-NOR,NOR,Deauville,1,LFRG,LFRG,DOL,,https://www.deauville.aeroport.fr/,https://en.wikipedia.org/wiki/Deauville_%E2%80%93_Normandie_Airport,"Deauville-Saint Gatien",500,2025-08-18T17:15:13+00:00
4206,LFRB,large_airport,"Brest Bretagne airport",48.447899,-4.41854,325,EU,France,FR,Brittany,FR-BRE,BRE,Brest,1,LFRB,LFRB,BES,,https://www.brest.aeroport.bzh,https://en.wikipedia.org/wiki/Brest_Bretagne_Airport,,1000,2026-01-18T02:34:46+00:00
4061,LFBE,medium_airport,"Bergerac Dordogne-Périgord airport",44.825298,0.518611,171,EU,France,FR,Nouvelle-Aquitaine,FR-NAQ,NAQ,Bergerac,1,LFBE,LFBE,EGC,,https://www.bergerac.aeroport.fr/,https://en.wikipedia.org/wiki/Bergerac_Dordogne_P%C3%A9rigord_Airport,,750,2025-08-18T15:47:37+00:00
4124,LFKC,medium_airport,"Calvi Sainte Catherine Airport",42.530422,8.792984,209,EU,France,FR,Corsica,FR-COR,COR,Calvi,1,LFKC,LFKC,CLY,,https://en.balagne-corsica.com/commerce-et-service/calvi-sainte-catherine-airport/,https://en.wikipedia.org/wiki/Calvi_-_Sainte-Catherine_Airport,,750,2025-08-18T20:43:01+00:00
4050,LFAC,medium_airport,"Calais Marck Airport",50.962101,1.95476,12,EU,France,FR,Hauts-de-France,FR-HDF,HDF,Calais,0,LFAC,LFAC,CQF,,https://calais.aeroport.fr/en/homepage/,https://fr.wikipedia.org/wiki/A%C3%A9roport_de_Calais_-_Dunkerque,"Dunkirk, Grand Calais",325,2025-08-18T20:27:13+00:00
4162,LFMU,medium_airport,"Béziers Vias airport",43.323502,3.3539,56,EU,France,FR,Occitanie,FR-OCC,OCC,Béziers,1,LFMU,LFMU,BZR,,https://beziers.aeroport.fr/en/,https://en.wikipedia.org/wiki/B%C3%A9ziers-Agde-Vias_Airport,,750,2025-08-18T15:48:05+00:00
4065,LFBI,medium_airport,"Poitiers-Biard Airport",46.5877,0.306666,423,EU,France,FR,Nouvelle-Aquitaine,FR-NAQ,NAQ,Poitiers/Biard,1,LFBI,LFBI,PIS,,https://www.poitiers.aeroport.fr/,https://en.wikipedia.org/wiki/Poitiers_-_Biard_Airport,,750,2024-04-13T01:33:55+00:00
4242,LFTW,medium_airport,"Nîmes-Arles-Camargue Airport",43.757401,4.41635,309,EU,France,FR,Occitanie,FR-OCC,OCC,Nîmes/Garons,1,LFTW,LFTW,FNI,,https://www.nimes.aeroport.fr/en,https://en.wikipedia.org/wiki/N%C3%AEmes-Arles-Camargue_Airport,,750,2024-04-29T17:20:13+00:00
4071,LFBP,medium_airport,"Pau Pyrénées Airport",43.380001,-0.418611,616,EU,France,FR,Nouvelle-Aquitaine,FR-NAQ,NAQ,"Pau/Pyrénées (Uzein)",1,LFBP,LFBP,PUF,,https://www.pau.aeroport.fr/passenger/,https://en.wikipedia.org/wiki/Pau_Pyr%C3%A9n%C3%A9es_Airport,,750,2024-04-13T01:41:45+00:00
4215,LFRK,medium_airport,"Caen Carpiquet airport",49.17678,-0.454883,256,EU,France,FR,Normandy,FR-NOR,NOR,Caen,1,LFRK,LFRK,CFR,,https://www.caen.aeroport.fr/,https://en.wikipedia.org/wiki/Caen_-_Carpiquet_Airport,,750,2025-08-18T15:52:04+00:00
4193,LFQB,medium_airport,"Troyes-Barberey Airport",48.322102,4.0167,388,EU,France,FR,"Grand Est",FR-GES,GES,"Barberey-Saint-Sulpice, Aube",0,LFQB,,,,http://www.troyes.aeroport.fr/,https://en.wikipedia.org/wiki/Troyes_%E2%80%93_Barberey_Airport,QYR,375,2024-06-22T18:03:05+00:00
4104,LFGA,medium_airport,"Colmar Houssen airport",48.109901,7.35901,628,EU,France,FR,"Grand Est",FR-GES,GES,Colmar,0,LFGA,LFGA,CMR,,https://www.colmar.aeroport.fr/en/,https://en.wikipedia.org/wiki/Colmar_Airport,,325,2025-08-18T16:03:13+00:00
28927,LFLG,small_airport,"Grenoble Le Versoud Airfield",45.218047,5.848317,722,EU,France,FR,Auvergne-Rhône-Alpes,FR-ARA,ARA,"Le Versoud, Isère",0,LFLG,LFLG,,,,https://en.wikipedia.org/wiki/Grenoble_%E2%80%93_Le_Versoud_Aerodrome,,50,2025-08-18T22:22:16+00:00
4188,LFPN,medium_airport,"Toussus-le-Noble Airport",48.7519,2.10619,538,EU,France,FR,Île-de-France,FR-IDF,IDF,"Toussus-le-Noble, Yvelines",0,LFPN,LFPN,TNF,,,https://en.wikipedia.org/wiki/Toussus-le-Noble_Airport,,575,2024-06-22T13:28:33+00:00
28488,LFLJ,small_airport,"Courchevel Altiport",45.397531,6.63498,6583,EU,France,FR,Auvergne-Rhône-Alpes,FR-ARA,ARA,Saint-Bon,0,LFLJ,LFLJ,CVF,,,https://en.wikipedia.org/wiki/Courchevel_Altiport,,50,2022-09-11T20:22:52+00:00
4136,LFLI,medium_airport,"Annemasse Airfield",46.192001,6.26839,1620,EU,France,FR,Auvergne-Rhône-Alpes,FR-ARA,ARA,Annemasse,0,LFLI,,,,http://www.caa.asso.fr/,https://en.wikipedia.org/wiki/Annemasse_Aerodrome,,250,2024-04-12T18:52:29+00:00
4176,LFOK,medium_airport,"Chalons Vatry airport",48.77333,4.20611,587,EU,France,FR,"Grand Est",FR-GES,GES,"Chalons en Champagne",1,LFOK,LFOK,XCR,,https://www.parisvatry.com/,https://en.wikipedia.org/wiki/Ch%C3%A2lons_Vatry_Airport,"Paris-Châlons, Paris-Vatry, Paris-Vatry (Disney), Vatry Europort",750,2025-08-18T15:56:00+00:00
4207,LFRC,medium_airport,"Cherbourg Manche airport",49.650101,-1.47028,459,EU,France,FR,Normandy,FR-NOR,NOR,Cherbourg,0,LFRC,LFRC,CER,,https://www.cherbourg.aeroport.fr/,https://en.wikipedia.org/wiki/Cherbourg_-_Maupertus_Airport,"Aéroport de Cherbourg - Maupertus, Aéroport de Cherbourg - Manche, Cherbourg-Manche",750,2025-08-18T15:59:33+00:00
4190,LFPT,medium_airport,"Pontoise-Cormeilles Aerodrome",49.096064,2.035543,325,EU,France,FR,Île-de-France,FR-IDF,IDF,"Cormeilles-en-Vexin, Val-d'Oise",0,LFPT,LFPT,POX,,,https://en.wikipedia.org/wiki/Pontoise_%E2%80%93_Cormeilles_Aerodrome,"Aérodrome de Pontoise-Cormeilles en Vexin, Cergy Pontoise",525,2025-10-04T16:36:03+00:00
4159,LFMQ,medium_airport,"Le Castellet Airport",43.252499,5.78519,1391,EU,France,FR,Provence-Alpes-Côte-d'Azur,FR-PAC,PAC,"Le Castellet, Var",0,LFMQ,LFMQ,CTT,,https://www.aeroportducastellet.com/en/,https://fr.wikipedia.org/wiki/A%C3%A9roport_du_Castellet,,250,2024-10-30T09:20:17+00:00
4152,LFMH,medium_airport,"Saint-Étienne-Bouthéon Airport",45.5406,4.29639,1325,EU,France,FR,Auvergne-Rhône-Alpes,FR-ARA,ARA,"Andrézieux-Bouthéon, Loire",0,LFMH,LFMH,EBU,,https://saint-etienne.aeroport.fr/en/,https://en.wikipedia.org/wiki/Saint-%C3%89tienne_-_Bouth%C3%A9on_Airport,Saint-Étienne-Loire,750,2025-01-07T13:58:39+00:00
4120,LFJL,medium_airport,"Metz-Nancy-Lorraine Airport",48.982101,6.25132,870,EU,France,FR,"Grand Est",FR-GES,GES,Goin,1,LFJL,LFJL,ETZ,,https://lorraineaeroport.com/,https://en.wikipedia.org/wiki/Metz-Nancy-Lorraine_Airport,,750,2024-04-13T01:43:38+00:00
4220,LFRQ,medium_airport,"Quimper-Cornouaille Airport",47.973031,-4.169655,297,EU,France,FR,Brittany,FR-BRE,BRE,Quimper/Pluguffan,0,LFRQ,LFRQ,UIP,,https://www.quimper.aeroport.bzh/accueil,https://en.wikipedia.org/wiki/Quimper_-_Cornouaille_Airport,,750,2024-04-29T17:46:43+00:00
4107,LFGJ,medium_airport,"Dole Tavaux Airport",47.038955,5.427589,645,EU,France,FR,Bourgogne-Franche-Comté,FR-BFC,BFC,Dole,1,LFGJ,LFGJ,DLE,,https://dole.aeroport.fr/,https://en.wikipedia.org/wiki/Dole%E2%80%93Jura_Airport,Dole-Tavaux,575,2025-08-18T17:17:31+00:00
4147,LFLX,medium_airport,"Châteauroux Déols airport",46.860221,1.728326,529,EU,France,FR,"Centre-Val de Loire",FR-CVL,CVL,Châteauroux,0,LFLX,LFLX,CHR,,https://chateauroux.aeroport.fr/#,https://en.wikipedia.org/wiki/Ch%C3%A2teauroux-D%C3%A9ols_%22Marcel_Dassault%22_Airport,,475,2025-08-18T15:58:20+00:00
4130,LFLA,medium_airport,"Auxerre Branches airport",47.850201,3.49711,523,EU,France,FR,Bourgogne-Franche-Comté,FR-BFC,BFC,Auxerre,0,LFLA,LFLA,AUF,,https://www.auxerre.aeroport.fr/,https://en.wikipedia.org/wiki/Auxerre_%E2%80%93_Branches_Aerodrome,,325,2025-08-18T15:46:14+00:00
4149,LFMA,small_airport,"Aix Les Milles airport",43.506294,5.366426,367,EU,France,FR,Provence-Alpes-Côte-d'Azur,FR-PAC,PAC,"Aix en Provence",0,LFMA,LFMA,,,,https://en.wikipedia.org/wiki/Aix-en-Provence_Aerodrome,"Aérodrome d'Aix - Les Milles",50,2025-08-18T15:42:46+00:00
28887,LFHM,small_airport,"Megève Altiport",45.823005,6.649406,4823,EU,France,FR,Auvergne-Rhône-Alpes,FR-ARA,ARA,Megève,0,LFHM,LFHM,MVV,,,https://en.wikipedia.org/wiki/Meg%C3%A8ve_Altiport,,50,2022-09-11T19:35:44+00:00
4127,LFKO,small_airport,"Propriano Airport",41.660599,8.88975,13,EU,France,FR,Corsica,FR-COR,COR,Propriano,0,LFKO,LFKO,PRP,,,https://fr.wikipedia.org/wiki/A%C3%A9rodrome_de_Propriano,,50,2024-04-12T17:40:40+00:00
4177,LFOP,medium_airport,"Rouen Vallée de Seine Airport",49.384887,1.179142,512,EU,France,FR,Normandy,FR-NOR,NOR,Boos,0,LFOP,LFOP,URO,,https://www.aeroport-rouen.fr/,https://en.wikipedia.org/wiki/Rouen_Airport,,750,2024-04-29T17:36:31+00:00
4086,LFCR,medium_airport,"Rodez–Aveyron Airport",44.407902,2.48267,1910,EU,France,FR,Occitanie,FR-OCC,OCC,Rodez/Marcillac,1,LFCR,LFCR,RDZ,,https://www.aeroport-rodez.fr/en/,https://en.wikipedia.org/wiki/Rodez%E2%80%93Aveyron_Airport,,750,2024-04-13T01:48:15+00:00
4228,LFSD,medium_airport,"Dijon Longvic airport",47.268902,5.09,726,EU,France,FR,Bourgogne-Franche-Comté,FR-BFC,BFC,Dijon,1,LFSD,LFSD,DIJ,,http://www.aeroport.dijon.cci.fr/,https://fr.wikipedia.org/wiki/A%C3%A9roport_de_Dijon-Bourgogne,"BA 102",500,2025-08-18T17:15:45+00:00
4144,LFLU,medium_airport,"Valence-Chabeuil Airport",44.9216,4.9699,525,EU,France,FR,Auvergne-Rhône-Alpes,FR-ARA,ARA,"Chabeuil, Drôme",0,LFLU,LFLU,VAF,,http://www.valenceaeroport.fr,https://en.wikipedia.org/wiki/Valence-Chabeuil_Airport,,325,2024-10-28T11:09:00+00:00
4197,LFQG,medium_airport,"Nevers-Fourchambault Airport",47.002913,3.113114,602,EU,France,FR,Bourgogne-Franche-Comté,FR-BFC,BFC,"Marzy, Nièvre",0,LFQG,LFQG,NVS,,,https://fr.wikipedia.org/wiki/A%C3%A9roport_de_Nevers-Fourchambault,,250,2024-12-01T11:03:22+00:00
4083,LFCL,small_airport,"Toulouse-Lasbordes Airfield",43.58677,1.49924,460,EU,France,FR,Occitanie,FR-OCC,OCC,"Balma, Haute-Garonne",0,LFCL,,,,https://www.toulouse-metropole.fr/missions/deplacements/aerodrome-toulouse-lasbordes,https://en.wikipedia.org/wiki/Toulouse_-_Lasbordes_Airport,,50,2024-06-30T05:59:32+00:00
28862,LFGI,small_airport,"Dijon Darois Airfield",47.385278,4.946944,1586,EU,France,FR,Bourgogne-Franche-Comté,FR-BFC,BFC,"Darois, Côte-d'Or",0,LFGI,,,,,https://fr.m.wikipedia.org/wiki/Aérodrome_de_Dijon_-_Darois,,50,2024-06-22T17:16:06+00:00
28981,LFPZ,small_airport,"Saint-Cyr-l'École Airport",48.812459,2.067533,373,EU,France,FR,Île-de-France,FR-IDF,IDF,"Saint-Cyr-l'École, Yvelines",0,LFPZ,,,,,https://fr.wikipedia.org/wiki/A%C3%A9rodrome_de_Saint-Cyr-l%27%C3%89cole,,50,2024-06-22T14:13:39+00:00
28938,LFNA,small_airport,"Gap-Tallard Airfield",44.455002,6.03778,1986,EU,France,FR,Provence-Alpes-Côte-d'Azur,FR-PAC,PAC,"Tallard, Hautes-Alpes",0,LFNA,LFNA,GAT,,,https://en.wikipedia.org/wiki/Gap%E2%80%93Tallard_Airport,,50,2024-10-30T14:01:38+00:00
28916,LFKA,small_airport,"Albertville General Pierre Delachenal Airfield",45.626044,6.328125,1033,EU,France,FR,Auvergne-Rhône-Alpes,FR-ARA,ARA,Tournon,0,LFKA,,,,,https://en.wikipedia.org/wiki/Albertville_Aerodrome,,50,2023-12-29T09:00:08+00:00
4058,LFBA,medium_airport,"Agen La Garenne airport",44.174171,0.59309,204,EU,France,FR,Nouvelle-Aquitaine,FR-NAQ,NAQ,Agen,0,LFBA,LFBA,AGF,,http://www.aeroport-agen.com/,https://en.wikipedia.org/wiki/Agen_-_La_Garenne_Aerodrome,,750,2025-08-18T15:42:30+00:00
4212,LFRH,medium_airport,"Lorient South Brittany (Bretagne Sud) Airport",47.760601,-3.44,160,EU,France,FR,Brittany,FR-BRE,BRE,Lorient/Lann/Bihoué,1,LFRH,LFRH,LRT,,https://www.lorient.aeroport.fr/en,https://en.wikipedia.org/wiki/Lorient_South_Brittany_Airport,,750,2024-04-29T17:18:14+00:00
4225,LFRZ,medium_airport,"Saint-Nazaire-Montoir Airport",47.31142,-2.152634,13,EU,France,FR,Pays-de-la-Loire,FR-PDL,PDL,Saint-Nazaire/Montoir,1,LFRZ,LFRZ,SNR,,,https://en.wikipedia.org/wiki/Saint-Nazaire_Montoir_Airport,,575,2024-04-10T17:29:44+00:00
4222,LFRT,medium_airport,"Saint-Brieuc-Armor Airport",48.538628,-2.853518,453,EU,France,FR,Brittany,FR-BRE,BRE,"Trémuson, Côtes-d'Armor",0,LFRT,LFRT,SBK,,https://www.st-brieuc.aeroport.fr/en/,https://en.wikipedia.org/wiki/Saint-Brieuc_%E2%80%93_Armor_Airport,,300,2024-08-07T13:52:30+00:00
4166,LFNB,medium_airport,"Mende-Brenoux Airfield",44.502102,3.53282,3362,EU,France,FR,Occitanie,FR-OCC,OCC,Mende/Brénoux,0,LFNB,LFNB,MEN,,,https://fr.wikipedia.org/wiki/A%C3%A9rodrome_de_Mende_-_Brenoux,,250,2024-04-12T17:46:57+00:00
28830,LFEQ,small_airport,"Quiberon Airfield",47.482201,-3.1,37,EU,France,FR,Brittany,FR-BRE,BRE,,0,LFEQ,,,,,https://fr.wikipedia.org/wiki/A%C3%A9rodrome_de_Quiberon,,50,2024-05-15T18:28:33+00:00
28975,LFPL,small_airport,"Lognes Emerainville Airfield",48.821028,2.625967,359,EU,France,FR,Île-de-France,FR-IDF,IDF,"Lognes, Seine-et-Marne",0,LFPL,LFPL,,,,https://fr.wikipedia.org/wiki/A%C3%A9rodrome_de_Lognes-%C3%89merainville,"Aérodrome Lognes-Emerainville",50,2024-06-22T13:07:36+00:00
4192,LFQA,small_airport,"Reims-Prunay Airfield",49.208698,4.15658,313,EU,France,FR,"Grand Est",FR-GES,GES,"Prunay, Marne",0,LFQA,,,,,https://en.wikipedia.org/wiki/Reims_%E2%80%93_Prunay_Aerodrome,"Aérodrome de Reims Prunay, Reims-Champagne, Reims",50,2024-06-22T21:39:31+00:00
4182,LFOZ,small_airport,"Orléans–Saint-Denis-de-l'Hôtel Airport",47.897758,2.164478,396,EU,France,FR,"Centre-Val de Loire",FR-CVL,CVL,"Saint-Denis-de-l'Hôtel, Loiret",0,LFOZ,LFOZ,ORE,,https://orleans.aeroport.fr/,https://en.wikipedia.org/wiki/Orl%C3%A9ans_%E2%80%93_Saint-Denis-de-l%27H%C3%B4tel_Airport,"Aéroport du Loiret, Loiret, Loire Valley, Loire-Vallée",50,2025-01-08T09:29:33+00:00
28942,LFNF,small_airport,"Vinon Airfield",43.737801,5.78417,902,EU,France,FR,Provence-Alpes-Côte-d'Azur,FR-PAC,PAC,"Vinon-sur-Verdon, Var",0,LFNF,,,,,https://fr.wikipedia.org/wiki/Liste_des_a%C3%A9rodromes_en_France,,50,2024-10-30T10:35:34+00:00
4146,LFLW,medium_airport,"Aurillac airport",44.891399,2.42194,2096,EU,France,FR,Auvergne-Rhône-Alpes,FR-ARA,ARA,Aurillac,1,LFLW,LFLW,AUR,,,https://en.wikipedia.org/wiki/Aurillac_Airport,,750,2025-08-18T15:45:57+00:00
29001,LFSL,medium_airport,"Brive Souillac airport",45.039722,1.485556,1016,EU,France,FR,Nouvelle-Aquitaine,FR-NAQ,NAQ,Brive,1,LFSL,LFSL,BVE,,http://www.aeroport-brive-vallee-dordogne.fr,https://fr.wikipedia.org/wiki/Aéroport_de_Brive-Souillac,"Vallee de la Dordogne, Brive-la-Gaillarde",500,2026-01-28T22:48:41+00:00
4217,LFRM,medium_airport,"Le Mans-Arnage Airport",47.948604,0.201702,194,EU,France,FR,Pays-de-la-Loire,FR-PDL,PDL,"Le Mans, Sarthe",1,LFRM,LFRM,LME,,https://aeroport.lemans.sarthe.cci.fr/,https://fr.wikipedia.org/wiki/A%C3%A9roport_Le_Mans-Arnage,,500,2024-08-07T14:22:55+00:00
4138,LFLM,medium_airport,"Mâcon-Charnay Airfield",46.295131,4.795977,728,EU,France,FR,Bourgogne-Franche-Comté,FR-BFC,BFC,"Charnay-lès-Mâcon, Saône-et-Loire",0,LFLM,,,,,https://fr.wikipedia.org/wiki/A%C3%A9rodrome_de_M%C3%A2con_-_Charnay,QNX,250,2024-10-28T12:12:34+00:00
28820,LFEC,small_airport,"Ouessant Airport",48.4632,-5.06358,142,EU,France,FR,Brittany,FR-BRE,BRE,Ushant,1,LFEC,LFEC,OUI,,,https://en.wikipedia.org/wiki/Ushant_Airport,,100,2026-01-29T00:32:18+00:00
28930,LFLR,small_airport,"Saint-Rambert-d'Albon Airfield",45.251531,4.826403,509,EU,France,FR,Auvergne-Rhône-Alpes,FR-ARA,ARA,"Albon, Drôme",0,LFLR,,,,,https://fr.wikipedia.org/wiki/A%C3%A9rodrome_de_Saint-Rambert-d'Albon,,50,2024-10-28T11:13:47+00:00
4113,LFHS,small_airport,"Bourg-Ceyzériat Airfield",46.200901,5.29203,857,EU,France,FR,Auvergne-Rhône-Alpes,FR-ARA,ARA,Bourg/Ceyzériat,0,LFHS,LFHS,,,,https://en.wikipedia.org/wiki/Bourg_-_Ceyz%C3%A9riat_Airport,,50,2024-01-05T10:10:45+00:00
4167,LFNH,small_airport,"Edgar Soumille Airfield",44.027689,5.084255,394,EU,France,FR,Provence-Alpes-Côte-d'Azur,FR-PAC,PAC,"Carpentras, Vaucluse",0,LFNH,,,,,https://fr.wikipedia.org/wiki/A%C3%A9rodrome_Edgar_Soumille,Pernes-les-Fontaines,50,2025-01-07T13:37:59+00:00
28929,LFLQ,small_airport,"Montélimar-Ancône Airfield",44.579883,4.738789,240,EU,France,FR,Auvergne-Rhône-Alpes,FR-ARA,ARA,"Montélimar, Drôme",0,LFLQ,,,,,https://fr.wikipedia.org/wiki/A%C3%A9rodrome_de_Mont%C3%A9limar_-_Anc%C3%B4ne,,50,2024-10-28T10:59:53+00:00
4240,LFTF,small_airport,"Cuers-Pierrefeu Airfield",43.247615,6.126654,266,EU,France,FR,Provence-Alpes-Côte-d'Azur,FR-PAC,PAC,"Pierrefeu-du-Var, Var",0,LFTF,,,,,https://fr.wikipedia.org/wiki/A%C3%A9rodrome_de_Cuers-Pierrefeu,,50,2024-10-30T09:33:23+00:00
28881,LFHF,small_airport,"Ruoms Airfield",44.444611,4.332755,361,EU,France,FR,Auvergne-Rhône-Alpes,FR-ARA,ARA,Ruoms,0,LFHF,,,,,https://fr.wikipedia.org/wiki/A%C3%A9rodrome_de_Ruoms,,50,2024-05-15T18:52:15+00:00
4237,FR-1241,closed,"Reims-Champagne (BA 112) Air Base",49.310001,4.05,312,EU,France,FR,"Grand Est",FR-GES,GES,"Bétheny, Marne",0,,,,,,,"LFSR, RHE",975,2025-02-25T14:38:03+00:00
4219,LFRO,medium_airport,"Lannion Airport",48.754398,-3.47166,290,EU,France,FR,Brittany,FR-BRE,BRE,Lannion,0,LFRO,LFRO,LAI,,http://www.lannion.aeroport.fr,https://en.wikipedia.org/wiki/Lannion_%E2%80%93_C%C3%B4te_de_Granit_Airport,"Servel Airport",750,2025-08-18T17:30:27+00:00
4173,LFOH,medium_airport,"Le Havre-Octeville Airport",49.534038,0.088406,313,EU,France,FR,Normandy,FR-NOR,NOR,"Le Havre",0,LFOH,LFOH,LEH,,https://www.lehavre.aeroport.fr/,https://en.wikipedia.org/wiki/Le_Havre_Octeville_Airport,,750,2024-04-12T20:28:50+00:00
4224,LFRV,medium_airport,"Vannes-Meucon Airport",47.723301,-2.71856,446,EU,France,FR,Brittany,FR-BRE,BRE,Vannes/Meucon,0,LFRV,LFRV,VNE,,http://www.vannes.aeroport.fr/,https://en.wikipedia.org/wiki/Meucon_Airport,,500,2025-02-04T21:53:27+00:00
4234,LFSN,medium_airport,"Nancy-Essey Airport",48.692101,6.23046,751,EU,France,FR,"Grand Est",FR-GES,GES,"Tomblaine, Meurthe-et-Moselle",0,LFSN,LFSN,ENC,,https://www.nancy.aeroport.fr/,https://en.wikipedia.org/wiki/Nancy-Essey_Airport,,475,2024-06-26T10:09:00+00:00
4203,LFQT,medium_airport,"Merville-Calonne Airport",50.618401,2.64224,61,EU,France,FR,Hauts-de-France,FR-HDF,HDF,"Merville, Nord",0,LFQT,LFQT,HZB,,https://aeroport-mervillelestrem.fr/,https://en.wikipedia.org/wiki/Merville%E2%80%93Calonne_Airport,,325,2024-06-22T12:23:58+00:00
4080,LFCH,medium_airport,"Aérodrome d'Arcachon-La Teste-de-Buch",44.596401,-1.11083,52,EU,France,FR,Nouvelle-Aquitaine,FR-NAQ,NAQ,"Arcachon/La Teste-de-Buch",0,LFCH,,,,https://www.agglo-cobas.fr/mobilites/aerodrome/,https://en.wikipedia.org/wiki/Arcachon_-_La_Teste-de-Buch_Airport,XAC,250,2023-11-08T19:56:39+00:00
4140,LFLO,medium_airport,"Roanne-Renaison Airport",46.053818,3.999023,1106,EU,France,FR,Auvergne-Rhône-Alpes,FR-ARA,ARA,Saint-Léger-sur-Roanne,0,LFLO,LFLO,RNE,,,https://fr.wikipedia.org/wiki/A%C3%A9roport_de_Roanne,,250,2024-04-12T17:41:53+00:00
4243,LFTZ,small_airport,"La Môle Airport",43.205399,6.482,59,EU,France,FR,Provence-Alpes-Côte-d'Azur,FR-PAC,PAC,Saint-Tropez,1,LFTZ,LFTZ,LTT,,https://www.sainttropez.aeroport.fr/en,https://en.wikipedia.org/wiki/La_M%C3%B4le_%E2%80%93_Saint-Tropez_Airport,"Golfe du Saint-Tropez, Saint-Tropez",150,2025-08-18T17:28:40+00:00
4199,LFQJ,small_airport,"Maubeuge-Élesmes Airfield",50.310501,4.03312,452,EU,France,FR,Hauts-de-France,FR-HDF,HDF,"Vieux-Reng, Nord",0,LFQJ,,,,,https://fr.wikipedia.org/wiki/A%C3%A9rodrome_de_Maubeuge_-_%C3%89lesmes,"Maubeuge-Vieux-Reng-Élesmes Airport, ",150,2024-06-28T17:03:48+00:00
28943,LFNG,small_airport,"Aérodrome de Montpellier - Candillargues",43.610298,4.07028,5,EU,France,FR,Occitanie,FR-OCC,OCC,,0,LFNG,,,,,https://fr.wikipedia.org/wiki/A%C3%A9rodrome_de_Montpellier_-_Candillargues,,50,2024-05-15T19:46:53+00:00
4054,LFAQ,small_airport,"Albert Bray airport",49.970049,2.693939,364,EU,France,FR,Hauts-de-France,FR-HDF,HDF,Albert,0,LFAQ,LFAQ,BYF,,https://www.aeroportalbertpicardie.com/en/home/,https://en.wikipedia.org/wiki/Albert_%E2%80%93_Picardie_Airport,"Albert-Bray, Amiens-Henry Potez",50,2025-08-18T15:43:20+00:00
4200,LFQM,small_airport,"Besançon La Vèze Airfield",47.206615,6.083168,1271,EU,France,FR,Bourgogne-Franche-Comté,FR-BFC,BFC,Besançon,0,LFQM,LFQM,,,,https://en.wikipedia.org/wiki/Besan%C3%A7on_%E2%80%93_La_V%C3%A8ze_Aerodrome,QBQ,50,2025-08-20T09:19:24+00:00
28786,LFBS,small_airport,"Biscarrosse Parentis airfield",44.3694,-1.13056,98,EU,France,FR,Nouvelle-Aquitaine,FR-NAQ,NAQ,Biscarrosse,0,LFBS,,,,,https://en.wikipedia.org/wiki/Biscarrosse_%E2%80%93_Parentis_Airport,,50,2025-08-18T15:49:12+00:00
28937,LFMX,small_airport,"Château-Arnoux-Saint-Auban Airfield",44.060001,5.99139,1509,EU,France,FR,Provence-Alpes-Côte-d'Azur,FR-PAC,PAC,"Château-Arnoux-Saint-Auban, Alpes-de-Haute-Provence",0,LFMX,,,,,https://en.wikipedia.org/wiki/Ch%C3%A2teau-Arnoux-Saint-Auban_Airport,,50,2024-10-30T13:23:47+00:00
28999,LFSJ,small_airport,"Sédan Douzy Airfield",49.659698,5.03778,512,EU,France,FR,"Grand Est",FR-GES,GES,Douzy,0,LFSJ,,,,,https://fr.wikipedia.org/wiki/A%C3%A9rodrome_de_Sedan_-_Douzy,,50,2024-05-15T20:03:19+00:00
4231,LFSH,small_airport,"Haguenau Airfield",48.794821,7.816129,491,EU,France,FR,"Grand Est",FR-GES,GES,Haguenau,0,LFSH,,,,,https://en.wikipedia.org/wiki/Haguenau_Airport,,50,2023-11-08T12:16:51+00:00
28891,LFHU,small_airport,"L'Alpe d'Huez - Henri Giraud Altiport",45.087399,6.083604,6102,EU,France,FR,Auvergne-Rhône-Alpes,FR-ARA,ARA,"Huez, Isère",0,LFHU,LFHU,AHZ,,,https://fr.wikipedia.org/wiki/Altiport_de_l'Alpe_d'Huez,,50,2025-01-07T13:51:57+00:00
28924,LFKX,small_airport,"Méribel Altiport",45.407505,6.577597,5636,EU,France,FR,Auvergne-Rhône-Alpes,FR-ARA,ARA,"Les Allues",0,LFKX,LFKX,MFX,,,https://en.wikipedia.org/wiki/M%C3%A9ribel_Altiport,,50,2022-09-11T20:08:26+00:00
28819,LFEB,small_airport,"Dinan-Trélivan Airfield",48.443351,-2.103142,394,EU,France,FR,Brittany,FR-BRE,BRE,"Trélivan, Côtes-d'Armor",0,LFEB,LFEB,,,,https://fr.wikipedia.org/wiki/A%C3%A9rodrome_de_Dinan_-_Tr%C3%A9livan,,50,2026-01-29T00:19:39+00:00
4082,LFCK,medium_airport,"Castres Mazamet Airport",43.556301,2.28918,788,EU,France,FR,Occitanie,FR-OCC,OCC,Castres,1,LFCK,LFCK,DCM,,http://aeroport81.fr/,https://en.wikipedia.org/wiki/Castres-Mazamet_Airport,,750,2025-08-18T20:58:16+00:00
4204,LFQV,medium_airport,"Charleville-Mézières Ardennes-Etienne Riché Airfield",49.783901,4.64708,492,EU,France,FR,"Grand Est",FR-GES,GES,Charleville-Mézières,0,LFQV,LFQV,,,,https://fr.wikipedia.org/wiki/A%C3%A9rodrome_de_Charleville-M%C3%A9zi%C3%A8res,,475,2024-04-12T19:07:13+00:00
4145,LFLV,medium_airport,"Vichy-Charmeil Airport",46.16969,3.403637,817,EU,France,FR,Auvergne-Rhône-Alpes,FR-ARA,ARA,"Charmeil, Allier",0,LFLV,LFLV,VHY,,,https://en.wikipedia.org/wiki/Vichy_%E2%80%94_Charmeil_Airport,,375,2024-08-04T12:15:30+00:00
4057,LFAY,medium_airport,"Amiens Glisy Airfield",49.873004,2.387074,208,EU,France,FR,Hauts-de-France,FR-HDF,HDF,Amiens,0,LFAY,LFAY,,,,https://en.wikipedia.org/wiki/Amiens_%E2%80%93_Glisy_Aerodrome,"QAM, Aérodrome d'Amiens-Glisy",250,2025-08-20T09:20:59+00:00
4210,LFRF,medium_airport,"Granville Airport",48.883099,-1.56417,45,EU,France,FR,Normandy,FR-NOR,NOR,"Bréville-sur-Mer, Manche",0,LFRF,LFRF,GFR,,,https://fr.wikipedia.org/wiki/A%C3%A9rodrome_de_Granville-Mont-Saint-Michel,"Granville Mont-Saint-Michel",250,2024-08-07T13:44:11+00:00
4174,LFOI,medium_airport,"Abbeville-Buigny Baie de Somme Airfield",50.143501,1.831891,220,EU,France,FR,Hauts-de-France,FR-HDF,HDF,Buigny-Saint-Maclou,0,LFOI,LFOI,,,http://aeroclub-abbeville.fr/,https://fr.wikipedia.org/wiki/Aérodrome_d'Abbeville,"Aérodrome d'Abbeville",250,2025-05-09T07:37:17+00:00
4209,LFRE,medium_airport,"La Baule-Escoublac Airport",47.289398,-2.34639,105,EU,France,FR,Pays-de-la-Loire,FR-PDL,PDL,"La Baule-Escoublac",0,LFRE,LFRE,LBY,,,https://fr.wikipedia.org/wiki/A%C3%A9rodrome_de_La_Baule-Escoublac,,250,2024-04-12T17:59:30+00:00
4110,LFHO,medium_airport,"Aubenas-South Ardèche Airport",44.544367,4.372194,923,EU,France,FR,Auvergne-Rhône-Alpes,FR-ARA,ARA,"Lanas, Ardèche",0,LFHO,LFHO,OBS,,,https://en.wikipedia.org/wiki/Aubenas_Aerodrome,"Aubenas Ardèche Méridionale",250,2025-01-07T17:23:25+00:00
4181,LFOV,medium_airport,"Laval-Entrammes Airport",48.032208,-0.743999,330,EU,France,FR,Pays-de-la-Loire,FR-PDL,PDL,"Laval, Mayenne",0,LFOV,LFOV,LVA,,https://www.aeroport-laval.com/en/home/,https://fr.wikipedia.org/wiki/A%C3%A9roport_de_Laval_-_La_Mayenne,,250,2024-10-22T11:28:21+00:00
4106,LFGF,small_airport,"Beaune-Challanges Airfield",47.005901,4.89342,656,EU,France,FR,Bourgogne-Franche-Comté,FR-BFC,BFC,Beaune/Challanges,0,LFGF,,,,,https://fr.wikipedia.org/wiki/A%C3%A9rodrome_de_Beaune_-_Challanges,,150,2024-05-15T18:45:48+00:00
4101,LFEY,small_airport,"Île d'Yeu Airport",46.717641,-2.392544,79,EU,France,FR,Pays-de-la-Loire,FR-PDL,PDL,"Île d'Yeu",0,LFEY,LFEY,IDY,,,https://en.wikipedia.org/wiki/%C3%8Ele_d'Yeu_Aerodrome,,150,2026-06-03T13:14:20+00:00
28908,LFJD,small_airport,"Corlier Altiport",46.040531,5.494537,2762,EU,France,FR,Auvergne-Rhône-Alpes,FR-ARA,ARA,,0,LFJD,,,,,https://en.wikipedia.org/wiki/Corlier_Aerodrome,,50,2021-04-30T13:25:01+00:00
28928,FR-1249,closed,"Oyonnax-Arbent Airfield",46.278424,5.666342,1755,EU,France,FR,Auvergne-Rhône-Alpes,FR-ARA,ARA,"Arbent, Ain",0,,,,,,https://fr.wikipedia.org/wiki/A%C3%A9rodrome_d%27Oyonnax_-_Arbent,"Jean Coutty, Aérodrome d'Oyonnax-Arbent, Centre de Vol à Voile du Haut-Bugey, LFLK",50,2025-10-01T14:07:30+00:00
4134,LFLE,small_airport,"Chambéry Challes-les-Eaux Airfield",45.5611,5.97576,973,EU,France,FR,Auvergne-Rhône-Alpes,FR-ARA,ARA,Barby,0,LFLE,LFLE,,,https://www.aeroclubdechalles.com/,https://en.wikipedia.org/wiki/Chamb%C3%A9ry_Aerodrome,"Aérodrome de Chambéry Challes-les-Eaux",50,2025-08-18T22:43:53+00:00
28965,LFOR,small_airport,"Chartres-Métropole Airfield",48.457502,1.519843,509,EU,France,FR,"Centre-Val de Loire",FR-CVL,CVL,"Chartres, Eure-et-Loir",0,LFOR,,,,,https://en.wikipedia.org/wiki/Chartres_%E2%80%93_Champhol_Aerodrome,"Champhol, A-40",50,2025-01-06T00:20:00+00:00
4114,LFHV,small_airport,"Villefranche-Tarare Airfield",45.918314,4.635184,1076,EU,France,FR,Auvergne-Rhône-Alpes,FR-ARA,ARA,"Frontenas, Rhône",0,LFHV,LFHV,,,,https://en.wikipedia.org/wiki/Villefranche_-_Tarare_Airport,,50,2025-08-19T07:40:45+00:00
4085,LFCQ,small_airport,"Aérodrome de Graulhet-Montdragon",43.771099,2.01083,581,EU,France,FR,Occitanie,FR-OCC,OCC,Graulhet/Montdragon,0,LFCQ,LFCQ,,,,https://fr.wikipedia.org/wiki/A%C3%A9rodrome_de_Graulhet_-_Montdragon,,50,2024-05-15T17:00:51+00:00
28996,LFRW,small_airport,"Avranches Le Val-Saint-Père Airfield",48.662255,-1.403685,26,EU,France,FR,Normandy,FR-NOR,NOR,"Le Val-Saint-Père, Manche",0,LFRW,,,,,https://fr.wikipedia.org/wiki/A%C3%A9rodrome_d%27Avranches_-_Le_Val-Saint-P%C3%A8re,,50,2024-08-07T13:47:02+00:00
28964,LFOO,small_airport,"Les Sables-d'Olonne Talmont Airport",46.476898,-1.72278,105,EU,France,FR,Pays-de-la-Loire,FR-PDL,PDL,"Les Sables-d'Olonne",0,LFOO,LFOO,LSO,,,https://fr.wikipedia.org/wiki/A%C3%A9rodrome_des_Sables-d%27Olonne-Talmont,Talmon-Saint-Hilaire,50,2024-04-12T17:50:02+00:00
4072,LFBR,small_airport,"Aérodrome de Muret - Lherm",43.448898,1.26333,622,EU,France,FR,Occitanie,FR-OCC,OCC,Muret/Lherm,0,LFBR,,,,https://www.muret-lherm.aero,https://fr.wikipedia.org/wiki/A%C3%A9rodrome_de_Muret_-_Lherm,,50,2020-05-12T14:36:26+00:00
4236,LFSP,small_airport,"Pontarlier Airfield",46.904032,6.326826,2683,EU,France,FR,Bourgogne-Franche-Comté,FR-BFC,BFC,"Pontarlier, Doubs",0,LFSP,,,,,https://en.wikipedia.org/wiki/Pontarlier_Airfield,,50,2024-06-25T13:16:01+00:00
28939,LFNC,small_airport,"Mont-Dauphin Saint-Crépin Airfield",44.701698,6.60028,2963,EU,France,FR,Provence-Alpes-Côte-d'Azur,FR-PAC,PAC,"Saint-Crépin, Hautes-Alpes",0,LFNC,LFNC,SCP,,http://www.stcrepin-aero.com/,https://fr.wikipedia.org/wiki/A%C3%A9rodrome_de_Mont-Dauphin_-_Saint-Cr%C3%A9pin,,50,2025-01-07T13:33:30+00:00
28935,LFMR,small_airport,"Barcelonnette - Saint-Pons Airfield",44.387198,6.608831,3714,EU,France,FR,Provence-Alpes-Côte-d'Azur,FR-PAC,PAC,"Saint-Pons, Alpes-de-Haute-Provence",0,LFMR,LFMR,BAE,,https://www.aerodromebarcelonnette.fr/,https://en.wikipedia.org/wiki/Barcelonnette_%E2%80%93_Saint-Pons_Airport,,50,2025-01-11T17:09:42+00:00
28812,LFDT,small_airport,"Aérodrome de Tarbes Laloubère",43.215269,0.077304,1076,EU,France,FR,Occitanie,FR-OCC,OCC,Tarbes,0,LFDT,,,,https://www.aerobigorre.org/,https://fr.wikipedia.org/wiki/A%C3%A9rodrome_de_Tarbes_-_Laloub%C3%A8re,XTB,50,2024-04-29T18:02:15+00:00
28888,LFHN,small_airport,"Bellegarde-Vouvray Airfield",46.123336,5.804858,1624,EU,France,FR,Auvergne-Rhône-Alpes,FR-ARA,ARA,"Valserhône, Ain",0,LFHN,,,,,https://fr.wikipedia.org/wiki/A%C3%A9rodrome_de_Bellegarde_-_Vouvray#Histoire,"Aérodrome de Bellegarde-Vouvray",50,2024-08-19T04:19:38+00:00
4074,LFBU,medium_airport,"Angoulême Brie-Champniers airport",45.729198,0.221456,436,EU,France,FR,Nouvelle-Aquitaine,FR-NAQ,NAQ,Angoulême,0,LFBU,LFBU,ANG,,https://angouleme-airport.com/,https://en.wikipedia.org/wiki/Angoul%C3%AAme_-_Brie_-_Champniers_Airport,,750,2025-08-18T15:44:52+00:00
4230,LFSG,medium_airport,"Épinal Mirecourt Airport",48.325001,6.06998,1084,EU,France,FR,"Grand Est",FR-GES,GES,Épinal,0,LFSG,LFSG,EPL,,http://www.epinal-mirecourt.aeroport.fr,https://en.wikipedia.org/wiki/%C3%89pinal_%E2%80%93_Mirecourt_Airport,,750,2025-08-18T17:18:31+00:00
4066,LFBK,medium_airport,"Montluçon-Guéret Airport",46.222599,2.36396,1497,EU,France,FR,Nouvelle-Aquitaine,FR-NAQ,NAQ,"Lépaud, Creuse",0,LFBK,LFBK,MCU,,https://aerodrome-montlucon-gueret.fr/,https://en.wikipedia.org/wiki/Montlu%C3%A7on_%E2%80%93_Gu%C3%A9ret_Airport,,575,2024-08-01T14:20:34+00:00
4213,LFRI,medium_airport,"La Roche-sur-Yon Les Ajoncs Airport",46.7019,-1.37863,299,EU,France,FR,Pays-de-la-Loire,FR-PDL,PDL,"La Roche-sur-Yon",0,LFRI,LFRI,EDM,,,https://fr.wikipedia.org/wiki/A%C3%A9rodrome_de_La_Roche-sur-Yon_-_Les_Ajoncs,,375,2025-08-18T17:29:19+00:00
4160,LFMS,medium_airport,"Aérodrome d'Alès Cévennes",44.069698,4.14212,668,EU,France,FR,Occitanie,FR-OCC,OCC,Alès/Deaux,0,LFMS,,,,,https://fr.wikipedia.org/wiki/A%C3%A9rodrome_d%27Al%C3%A8s_C%C3%A9vennes,,250,2024-05-15T19:45:27+00:00
4078,LFCC,medium_airport,"Cahors Lalbenque airport",44.351398,1.47528,912,EU,France,FR,Occitanie,FR-OCC,OCC,Cahors,0,LFCC,LFCC,ZAO,,,https://fr.wikipedia.org/wiki/A%C3%A9rodrome_de_Cahors_-_Lalbenque,,250,2025-08-18T15:52:19+00:00
4089,LFCY,medium_airport,"Royan-Médis Airport",45.628101,-0.9725,72,EU,France,FR,Nouvelle-Aquitaine,FR-NAQ,NAQ,Royan/Médis,0,LFCY,LFCY,RYN,,,https://en.wikipedia.org/wiki/Royan_%E2%80%93_M%C3%A9dis_Aerodrome,,250,2024-04-07T06:32:11+00:00
4178,LFOQ,small_airport,"Blois Le Breuil Airfield",47.678502,1.20884,398,EU,France,FR,"Centre-Val de Loire",FR-CVL,CVL,Blois,0,LFOQ,LFOQ,,,,https://fr.wikipedia.org/wiki/A%C3%A9rodrome_de_Blois_-_Le_Breuil,"XBQ, Aérodrome de Blois-Le Breuil",150,2025-08-18T19:22:24+00:00
4171,LFOD,small_airport,"Aérodrome de Saumur - Saint-Florent",47.256802,-0.115142,269,EU,France,FR,Pays-de-la-Loire,FR-PDL,PDL,Saumur/Saint-Florent,0,LFOD,,,,,https://fr.wikipedia.org/wiki/A%C3%A9rodrome_de_Saumur_-_Saint-Florent,,150,2024-05-15T19:52:49+00:00
28818,LFEA,small_airport,"Aérodrome de Belle Île",47.325256,-3.201255,171,EU,France,FR,Brittany,FR-BRE,BRE,Bangor,0,LFEA,LFEA,BIC,,,https://fr.wikipedia.org/wiki/Aérodrome_de_Belle-Île,"Palais-Belle-İle-en-Mer Aerodrome",100,2026-06-03T13:09:56+00:00
28910,LFJF,small_airport,"Aérodrome d'Aubenasson",44.6945,5.15111,810,EU,France,FR,Auvergne-Rhône-Alpes,FR-ARA,ARA,,0,LFJF,,,,,https://fr.wikipedia.org/wiki/A%C3%A9rodrome_d%27Aubenasson,,50,2024-05-15T19:03:31+00:00
28801,LFDC,small_airport,"Aérodrome de Montendre-Marcillac",45.274399,-0.452222,148,EU,France,FR,Nouvelle-Aquitaine,FR-NAQ,NAQ,,0,LFDC,,,,,https://fr.wikipedia.org/wiki/A%C3%A9rodrome_de_Montendre_-_Marcillac,,50,2024-05-15T17:24:02+00:00
28971,LFPD,small_airport,"Bernay-Saint-Martin Airfield",49.102351,0.565882,554,EU,France,FR,Normandy,FR-NOR,NOR,"Bernay, Eure",0,LFPD,,,,,https://fr.wikipedia.org/wiki/A%C3%A9rodrome_de_Bernay_-_Saint-Martin,,50,2025-01-15T16:34:12+00:00
28974,LFPH,small_airport,"Chelles-le-Pin Airfield",48.896568,2.606206,207,EU,France,FR,Île-de-France,FR-IDF,IDF,"Chelles, Seine-et-Marne",0,LFPH,,,,,https://fr.wikipedia.org/wiki/A%C3%A9rodrome_de_Chelles_-_Le_Pin,"Aérodrome de Chelles-le-Pin",50,2024-07-23T11:43:17+00:00
28885,LFHJ,small_airport,"Lyon Corbas Airfield",45.654202,4.91361,650,EU,France,FR,Auvergne-Rhône-Alpes,FR-ARA,ARA,Corbas,0,LFHJ,,,,,https://fr.wikipedia.org/wiki/A%C3%A9rodrome_de_Lyon_-_Corbas,,50,2024-08-01T12:41:40+00:00
4129,LFKT,small_airport,"Aérodrome de Corte",42.2919,9.189,1132,EU,France,FR,Corsica,FR-COR,COR,Corte,0,LFKT,,,,,https://fr.wikipedia.org/wiki/A%C3%A9rodrome_de_Corte,,50,2024-04-29T18:10:28+00:00
28863,LFGL,small_airport,"Lons-le-Saunier Courlaoux Airfield",46.675046,5.46911,761,EU,France,FR,Bourgogne-Franche-Comté,FR-BFC,BFC,Courlaoux,0,LFGL,,,,,https://fr.wikipedia.org/wiki/A%C3%A9rodrome_de_Lons-le-Saunier_-_Courlaoux,,50,2024-06-18T12:06:31+00:00
28772,LFAE,small_airport,"Eu Mers-Le Tréport Airfield",50.068168,1.424748,328,EU,France,FR,Normandy,FR-NOR,NOR,Eu,0,LFAE,LFAE,,,,https://fr.wikipedia.org/wiki/A%C3%A9rodrome_d%27Eu_-_Mers_-_Le_Tr%C3%A9port,,50,2025-08-19T09:03:13+00:00
28968,LFOX,small_airport,"Étampes-Mondésir Airfield",48.381901,2.07528,494,EU,France,FR,Île-de-France,FR-IDF,IDF,"Guillerval, Essonne",0,LFOX,,,,,https://fr.wikipedia.org/wiki/A%C3%A9rodrome_d%27%C3%89tampes_-_Mond%C3%A9sir,,50,2025-01-08T00:53:31+00:00
28972,LFPE,small_airport,"Meaux-Esbly Airfield",48.927462,2.833457,217,EU,France,FR,Île-de-France,FR-IDF,IDF,"Isles-lès-Villenoy, Seine-et-Marne",0,LFPE,,,,,https://fr.wikipedia.org/wiki/A%C3%A9rodrome_de_Meaux_-_Esbly,"Aérodrome de Meaux-Esbly",50,2024-06-22T13:06:46+00:00
4108,LFGK,small_airport,"Joigny Airfield",47.994462,3.392715,732,EU,France,FR,Bourgogne-Franche-Comté,FR-BFC,BFC,"Joigny, Yonne",0,LFGK,,,,,https://fr.wikipedia.org/wiki/A%C3%A9rodrome_de_Joigny,,50,2024-06-22T16:14:37+00:00
28879,LFHD,small_airport,"Pierrelatte Airfield",44.397601,4.717646,197,EU,France,FR,Auvergne-Rhône-Alpes,FR-ARA,ARA,"La Garde-Adhémar, Drôme",0,LFHD,,,,,https://fr.wikipedia.org/wiki/A%C3%A9rodrome_de_Pierrelatte,,50,2024-10-28T10:58:26+00:00
28976,LFPP,small_airport,"Le Plessis-Belleville Airfield",49.108837,2.736138,387,EU,France,FR,Hauts-de-France,FR-HDF,HDF,"Le Plessis-Belleville",0,LFPP,,,,,https://fr.wikipedia.org/wiki/A%C3%A9rodrome_du_Plessis-Belleville,,50,2020-04-27T10:24:13+00:00
4090,LFCZ,small_airport,"Aérodrome de Mimizan",44.145928,-1.16432,164,EU,France,FR,Nouvelle-Aquitaine,FR-NAQ,NAQ,Mimizan,0,LFCZ,LFCZ,,,,https://fr.wikipedia.org/wiki/A%C3%A9rodrome_de_Mimizan,,50,2026-05-05T09:20:42+00:00
28953,LFNU,small_airport,"Uzès-Belvezet Airfield",44.082146,4.393926,886,EU,France,FR,Occitanie,FR-OCC,OCC,"Mont-Lozère-et-Goulet, Lozère",0,LFNU,,,,,https://fr.wikipedia.org/wiki/A%C3%A9rodrome_d%27Uz%C3%A8s,,50,2024-10-28T10:51:56+00:00
4105,LFGB,small_airport,"Mulhouse-Habsheim Airfield",47.741299,7.43221,788,EU,France,FR,"Grand Est",FR-GES,GES,Mulhouse/Habsheim,0,LFGB,,,,,https://en.wikipedia.org/wiki/Mulhouse%E2%80%93Habsheim_Airfield,,50,2024-05-15T08:22:09+00:00
28876,LFGZ,small_airport,"Nuits-Saint-Georges Airfield",47.142032,4.968538,797,EU,France,FR,Bourgogne-Franche-Comté,FR-BFC,BFC,"Nuits-Saint-Georges, Côte-d'Or",0,LFGZ,,,,,https://fr.wikipedia.org/wiki/A%C3%A9rodrome_de_Nuits-Saint-Georges,"Aérodrome de Nuits-Saint-Georges",50,2024-06-22T17:11:23+00:00
29004,LFSW,small_airport,"Épernay Plivot Airfield",49.004461,4.085342,289,EU,France,FR,"Grand Est",FR-GES,GES,"Plivot, Marne",0,LFSW,,,,http://www.aeroclub-epernay.com/,https://fr.wikipedia.org/wiki/A%C3%A9rodrome_d%27%C3%89pernay_-_Plivot,,50,2024-06-22T21:34:55+00:00
28857,LFGC,small_airport,"Strasbourg Neuhof Airfield",48.553263,7.776604,456,EU,France,FR,"Grand Est",FR-GES,GES,Strasbourg,0,LFGC,,,,,https://fr.wikipedia.org/wiki/A%C3%A9rodrome_de_Strasbourg-Neuhof,"Strasbourg Polygone",50,2024-05-15T18:44:52+00:00
4121,LFJR,medium_airport,"Angers Marcé airport",47.560299,-0.312222,194,EU,France,FR,Pays-de-la-Loire,FR-PDL,PDL,Angers,0,LFJR,LFJR,ANE,,https://www.angers.aeroport.fr/en,https://en.wikipedia.org/wiki/Angers_–_Loire_Airport,"Marcé Airport.",750,2025-08-18T15:44:15+00:00
4139,LFLN,medium_airport,"Saint-Yan Airport",46.414019,4.014177,796,EU,France,FR,Bourgogne-Franche-Comté,FR-BFC,BFC,"L'Hôpital-le-Mercier, Saône-et-Loire",0,LFLN,LFLN,SYT,,http://www.aeroportsaintyan.fr/,https://en.wikipedia.org/wiki/Saint-Yan_Airport,,575,2024-12-04T15:40:07+00:00
4201,LFQP,medium_airport,"Phalsbourg-Bourscheid Air Base",48.766203,7.200551,1017,EU,France,FR,"Grand Est",FR-GES,GES,Bourscheid,0,LFQP,,,,,https://fr.wikipedia.org/wiki/Base_a%C3%A9rienne_de_Phalsbourg-Bourscheid,,450,2024-04-12T19:05:52+00:00
4175,LFOJ,medium_airport,"Orléans-Bricy (BA 123) Air Base",47.987801,1.76056,412,EU,France,FR,"Centre-Val de Loire",FR-CVL,CVL,"Boulay-les-Barres, Loiret",0,LFOJ,,,,,https://en.wikipedia.org/wiki/Orl%C3%A9ans_-_Bricy_Air_Base,,375,2024-08-07T22:08:54+00:00
4214,LFRJ,medium_airport,"Landivisiau Air Base",48.5303,-4.15164,348,EU,France,FR,Brittany,FR-BRE,BRE,Landivisiau,0,LFRJ,LFRJ,LDV,,,https://fr.wikipedia.org/wiki/Base_d%27a%C3%A9ronautique_navale_de_Landivisiau,,375,2024-04-12T18:07:09+00:00
4081,LFCI,medium_airport,"Albi Le Sequestre airport",43.913898,2.11306,564,EU,France,FR,Occitanie,FR-OCC,OCC,Albi,0,LFCI,LFCI,LBI,,,https://fr.wikipedia.org/wiki/A%C3%A9rodrome_d%27Albi_-_Le_Sequestre,,325,2025-08-18T15:43:37+00:00
4076,LFBX,medium_airport,"Périgueux-Bassillac Airport",45.198101,0.815556,328,EU,France,FR,Nouvelle-Aquitaine,FR-NAQ,NAQ,Périgueux/Bassillac,0,LFBX,LFBX,PGX,,,https://en.wikipedia.org/wiki/P%C3%A9rigueux_Bassillac_Airport,,325,2024-04-07T06:31:36+00:00
4097,LFDN,medium_airport,"Rochefort-Saint-Agnant (BA 721) Airport",45.887798,-0.983056,60,EU,France,FR,Nouvelle-Aquitaine,FR-NAQ,NAQ,Rochefort/Saint-Agnant,0,LFDN,LFDN,RCO,,,https://fr.wikipedia.org/wiki/A%C3%A9roport_de_Rochefort_-_Charente-Maritime,,325,2024-04-12T17:38:55+00:00
4150,LFMC,medium_airport,"Le Luc-Le Cannet Airfield",43.384701,6.38714,265,EU,France,FR,Provence-Alpes-Côte-d'Azur,FR-PAC,PAC,"Le Cannet-des-Maures, Var",0,LFMC,,,,,https://en.wikipedia.org/wiki/Le_Luc_%E2%80%93_Le_Cannet_Airport,,300,2024-10-30T09:58:55+00:00
4164,LFMY,medium_airport,"Salon-de-Provence (BA 701) Air Base",43.6064,5.10925,195,EU,France,FR,Provence-Alpes-Côte-d'Azur,FR-PAC,PAC,Salon,0,LFMY,,,,,https://en.wikipedia.org/wiki/Salon-de-Provence_Air_Base,,300,2024-04-12T18:54:34+00:00
4246,LFXA,medium_airport,"Ambérieu Air Base (BA 278)",45.987301,5.32844,823,EU,France,FR,Auvergne-Rhône-Alpes,FR-ARA,ARA,Ambérieu,0,LFXA,,,,,https://en.wikipedia.org/wiki/Amb%C3%A9rieu-en-Bugey_Air_Base,,250,2024-05-14T11:02:37+00:00
4093,LFDH,medium_airport,"Auch Gers Airfield",43.683606,0.599747,411,EU,France,FR,Occitanie,FR-OCC,OCC,Auch,0,LFDH,LFDH,,,"http://www.auchaeroport.fr/ (dead link as of 17-sep-2017)",https://fr.wikipedia.org/wiki/Aéroport_Auch_-_Gers,Lamothe,250,2025-08-20T09:19:57+00:00
4223,LFRU,medium_airport,"Morlaix-Ploujean Airport",48.6031990051,-3.81577992439,272,EU,France,FR,Brittany,FR-BRE,BRE,Morlaix/Ploujean,0,LFRU,LFRU,MXN,,,https://en.wikipedia.org/wiki/Morlaix_%E2%80%93_Ploujean_Airport,,250,2012-11-22T14:36:10+00:00
4069,LFBN,medium_airport,"Niort - Marais Poitevin Airport",46.313477,-0.394529,203,EU,France,FR,Nouvelle-Aquitaine,FR-NAQ,NAQ,Niort/Souché,0,LFBN,LFBN,NIT,,,https://fr.wikipedia.org/wiki/A%C3%A9rodrome_de_Niort_-_Marais_Poitevin,,250,2024-04-12T17:32:53+00:00
4109,LFGW,medium_airport,"Verdun-Le Rozelier Airfield",49.122398,5.46905,1230,EU,France,FR,"Grand Est",FR-GES,GES,Sommedieue,0,LFGW,,,,,https://en.wikipedia.org/wiki/Verdun-Le-Rozelier_Airport,"Verdun Sommedieue",250,2024-04-12T18:51:06+00:00
4135,LFLH,small_airport,"Chalon Champforgeuil Airfield",46.825813,4.817646,623,EU,France,FR,Bourgogne-Franche-Comté,FR-BFC,BFC,"Châlon sur Saône",0,LFLH,LFLH,,,,https://en.wikipedia.org/wiki/Chalon_-_Champforgeuil_Airfield,XCD,150,2025-08-18T22:15:04+00:00
4111,LFHP,small_airport,"Le Puy-Loudes Airfield",45.0807,3.76289,2731,EU,France,FR,Auvergne-Rhône-Alpes,FR-ARA,ARA,"Chaspuzac, Haute-Loire",1,LFHP,LFHP,LPY,,,https://en.wikipedia.org/wiki/Le_Puy_-_Loudes_Airport,,150,2025-03-28T19:29:58+00:00
4092,LFDB,small_airport,"Aérodrome Morin - Védrines",44.0257,1.37804,351,EU,France,FR,Occitanie,FR-OCC,OCC,Montauban,0,LFDB,LFDB,,,,https://fr.wikipedia.org/wiki/A%C3%A9rodrome_de_Montauban,,150,2026-01-28T21:55:14+00:00
28789,LFCB,small_airport,"Aérodrome de Bagnères de Luchon",42.799999,0.6,2028,EU,France,FR,Occitanie,FR-OCC,OCC,,0,LFCB,,,,,https://fr.wikipedia.org/wiki/A%C3%A9rodrome_de_Bagn%C3%A8res-de-Luchon,,50,2024-05-15T16:50:50+00:00
28901,LFIP,small_airport,"Altiport de Peyresourde Balestas",42.796723,0.436503,5190,EU,France,FR,Occitanie,FR-OCC,OCC,,0,LFIP,,,,,https://fr.wikipedia.org/wiki/Altiport_de_Peyresourde-Balestas,,50,2022-09-11T21:12:10+00:00
28941,LFNE,small_airport,"Aérodrome d'Eyguières",43.658298,5.01361,246,EU,France,FR,Provence-Alpes-Côte-d'Azur,FR-PAC,PAC,,0,LFNE,,,,,https://fr.wikipedia.org/wiki/A%C3%A9rodrome_de_Salon_-_Eygui%C3%A8res,,50,2024-05-15T19:46:29+00:00
28880,LFHE,small_airport,"Aérodrome de Romans - Saint-Paul",45.066101,5.10333,594,EU,France,FR,Auvergne-Rhône-Alpes,FR-ARA,ARA,,0,LFHE,,,,,https://fr.wikipedia.org/wiki/A%C3%A9rodrome_de_Romans_-_Saint-Paul,,50,2024-05-15T18:52:02+00:00
28909,LFJE,small_airport,"Altiport de La Motte Chalancon",44.4958,5.40285,2887,EU,France,FR,Auvergne-Rhône-Alpes,FR-ARA,ARA,,0,LFJE,,,,https://www.altisurfacelamotte-lfje.fr/,https://fr.wikipedia.org/wiki/Altiport_de_La_Motte-Chalancon,,50,2024-08-11T11:20:42+00:00
28826,LFEL,small_airport,"Le Blanc Airfield",46.6208,1.0875,377,EU,France,FR,"Centre-Val de Loire",FR-CVL,CVL,,0,LFEL,,,,,https://fr.wikipedia.org/wiki/A%C3%A9rodrome_du_Blanc,,50,2024-05-15T18:27:24+00:00
28795,LFCO,small_airport,"Oloron Herrere Airfield",43.163503,-0.561494,984,EU,France,FR,Nouvelle-Aquitaine,FR-NAQ,NAQ,,0,LFCO,,,,,https://fr.wikipedia.org/wiki/A%C3%A9rodrome_d%27Oloron_-_Herr%C3%A8re,,50,2024-08-07T21:37:51+00:00
28796,LFCP,small_airport,"Pons Avy Airfield",45.57,-0.515,117,EU,France,FR,Nouvelle-Aquitaine,FR-NAQ,NAQ,,0,LFCP,,,,,https://fr.wikipedia.org/wiki/A%C3%A9rodrome_de_Pons_-_Avy,,50,2024-05-15T17:00:20+00:00
28802,LFDE,small_airport,"Aérodrome d'Égletons",45.421398,2.06889,1857,EU,France,FR,Nouvelle-Aquitaine,FR-NAQ,NAQ,,0,LFDE,,,,,"http://wikipedia.fr/Aérodrome d'Égletons",,50,2021-08-26T04:05:22+00:00
28811,LFDS,small_airport,"Sarlat Domme Airfield",44.791707,1.247068,978,EU,France,FR,Nouvelle-Aquitaine,FR-NAQ,NAQ,,0,LFDS,,,,,https://fr.wikipedia.org/wiki/A%C3%A9rodrome_de_Sarlat_-_Domme,XSL,50,2024-05-15T18:20:08+00:00
28912,LFJI,small_airport,"Aérodrome de Marennes - Le Bournet",45.825001,-1.07667,16,EU,France,FR,Nouvelle-Aquitaine,FR-NAQ,NAQ,,0,LFJI,,,,,https://fr.wikipedia.org/wiki/A%C3%A9rodrome_de_Marennes,,50,2024-05-15T19:19:54+00:00
29019,FR-1262,closed,"Rochefort Soubise Airfield",45.930801,-0.995278,13,EU,France,FR,Nouvelle-Aquitaine,FR-NAQ,NAQ,,0,,,,,,,"LFXR, LFXR",50,2025-02-25T14:48:54+00:00
4091,LFDA,small_airport,"Aire-sur-l'Adour Airfield",43.7094,-0.245278,259,EU,France,FR,Nouvelle-Aquitaine,FR-NAQ,NAQ,Aire-sur-Adour,0,LFDA,,,,,https://fr.wikipedia.org/wiki/A%C3%A9rodrome_d%27Aire-sur-l%27Adour,,50,2024-05-15T17:22:46+00:00
28793,LFCJ,small_airport,"Aérodrome de Jonzac Neulles",45.4842,-0.421389,128,EU,France,FR,Nouvelle-Aquitaine,FR-NAQ,NAQ,Albi,0,LFCJ,,,,,https://fr.wikipedia.org/wiki/A%C3%A9rodrome_de_Jonzac_-_Neulles,,50,2024-05-15T16:53:58+00:00
28959,LFOF,small_airport,"Alençon-Valframbert Airfield",48.446568,0.107996,479,EU,France,FR,Normandy,FR-NOR,NOR,"Alençon, Orne",0,LFOF,,,,,https://fr.wikipedia.org/wiki/A%C3%A9rodrome_d%27Alen%C3%A7on_-_Valframbert,,50,2025-01-08T09:32:20+00:00
28884,LFHI,small_airport,"Morestel Airfield",45.686905,5.452244,804,EU,France,FR,Auvergne-Rhône-Alpes,FR-ARA,ARA,"Arandon-Passins, Isère",0,LFHI,,,,,https://fr.wikipedia.org/wiki/A%C3%A9rodrome_de_Morestel,,50,2024-10-30T20:50:33+00:00
28970,LFPA,small_airport,"Persan-Beaumont Airfield",49.165798,2.31306,148,EU,France,FR,Île-de-France,FR-IDF,IDF,"Bernes-sur-Oise, Val-d'Oise",0,LFPA,,,,,https://en.wikipedia.org/wiki/Persan-Beaumont_Airport,"Aérodrome de Persan-Beaumont",50,2024-06-22T13:12:39+00:00
28797,LFCS,small_airport,"Aérodrome de Bordeaux-Léognan-Saucats",44.700298,-0.595556,190,EU,France,FR,Nouvelle-Aquitaine,FR-NAQ,NAQ,Bordeaux-Saucats,0,LFCS,,,,,https://fr.wikipedia.org/wiki/A%C3%A9rodrome_de_Bordeaux_-_L%C3%A9ognan_-_Saucats,,50,2024-05-15T17:02:04+00:00
28823,LFEI,small_airport,"Briare Châtillon Airfield",47.614399,2.78194,539,EU,France,FR,"Centre-Val de Loire",FR-CVL,CVL,"Briare, Loiret",0,LFEI,,,,,https://fr.wikipedia.org/wiki/A%C3%A9rodrome_de_Briare_-_Ch%C3%A2tillon,,50,2025-01-07T13:25:21+00:00
28936,LFMW,small_airport,"Aérodrome de Castelnaudary-Villeneuve",43.312199,1.92111,551,EU,France,FR,Occitanie,FR-OCC,OCC,"Castelnaudary Villeneuve",0,LFMW,,,,,https://fr.wikipedia.org/wiki/A%C3%A9rodrome_de_Castelnaudary_-_Villeneuve,,50,2024-04-12T19:18:12+00:00
28849,LFFR,small_airport,"Bar-sur-Seine Airfield",48.065907,4.412368,938,EU,France,FR,"Grand Est",FR-GES,GES,"Celles-sur-Ource, Aube",0,LFFR,,,,,https://fr.wikipedia.org/wiki/A%C3%A9rodrome_de_Bar-sur-Seine,,50,2024-06-25T13:42:09+00:00
28923,LFKP,small_airport,"La Tour-de-Pin Airfield",45.554924,5.385867,1050,EU,France,FR,Auvergne-Rhône-Alpes,FR-ARA,ARA,"Cessieu, Isère",0,LFKP,,,,,https://fr.wikipedia.org/wiki/A%C3%A9rodrome_de_La_Tour-du-Pin_-_Cessieu,,50,2024-10-31T18:52:25+00:00
4194,LFQC,small_airport,"Lunéville-Croismare Airfield",48.593262,6.545419,790,EU,France,FR,"Grand Est",FR-GES,GES,Chanteheux,0,LFQC,,,,,https://en.wikipedia.org/wiki/Lun%C3%A9ville-Croismare_Airport,,50,2024-05-15T08:17:06+00:00
28979,LFPX,small_airport,"Chavenay-Villepreux Airfield",48.842323,1.9805,426,EU,France,FR,Île-de-France,FR-IDF,IDF,"Chavenay, Yvelines",0,LFPX,LFPX,,,,https://fr.wikipedia.org/wiki/A%C3%A9rodrome_de_Chavenay_-_Villepreux,,50,2024-06-22T14:15:00+00:00
4052,LFAI,small_airport,"Nangis-Les Loges Aerodrome",48.596199,3.00679,428,EU,France,FR,Île-de-France,FR-IDF,IDF,Clos-Fontaine,0,LFAI,LFAI,,,,https://en.wikipedia.org/wiki/Nangis_-_Les_Loges_aerodrome,"Aérodrome de Nangis Les Loges",50,2025-10-04T17:07:44+00:00
28998,LFSE,small_airport,"Épinal Dogneville Airfield",48.211899,6.44917,1040,EU,France,FR,"Grand Est",FR-GES,GES,Dogneville,0,LFSE,,,,,https://fr.wikipedia.org/wiki/A%C3%A9rodrome_d%27%C3%89pinal_-_Dogneville,,50,2024-05-15T20:02:59+00:00
28984,LFQK,small_airport,"Châlons - Écury-sur-Coole Airfield",48.905107,4.352703,319,EU,France,FR,"Grand Est",FR-GES,GES,Écury-sur-Coole,0,LFQK,,,,,https://fr.wikipedia.org/wiki/A%C3%A9rodrome_de_Ch%C3%A2lons_-_%C3%89cury-sur-Coole,"Farman Clément Aeroclub",50,2024-05-15T19:58:32+00:00
28933,LFMF,small_airport,"Fayence-Tourrettes Airfield",43.609576,6.697369,741,EU,France,FR,Provence-Alpes-Côte-d'Azur,FR-PAC,PAC,"Fayence, Var",0,LFMF,,,,,https://en.wikipedia.org/wiki/Fayence-Tourrettes_Airfield,Tourrettes,50,2025-01-29T10:19:37+00:00
28977,LFPQ,small_airport,"Fontenay-Trésigny Aerodrome",48.706276,2.902849,371,EU,France,FR,Île-de-France,FR-IDF,IDF,Fontenay-Trésigny,0,LFPQ,,,,,https://fr.wikipedia.org/wiki/A%C3%A9rodrome_de_Fontenay-Tr%C3%A9signy,"Aérodrome de Fontenay-Trésigny",50,2024-06-21T11:37:38+00:00
28919,LFKG,small_airport,"Aérodrome de Ghisonaccia - Alzitone",42.053387,9.400241,177,EU,France,FR,Corsica,FR-COR,COR,GHISONACCIA,0,LFKG,LFKG,,,https://aerodromudiaghisunaccia.com/,https://en.wikipedia.org/wiki/Ghisonaccia_Alzitone_Airport,,50,2025-09-03T09:59:41+00:00
30241,LFPI,heliport,"Paris Issy-les-Moulineaux Heliport",48.832987,2.273043,112,EU,France,FR,Île-de-France,FR-IDF,IDF,"Issy-les-Moulineaux, Hauts-de-Seine",0,LFPI,,,,,https://fr.wikipedia.org/wiki/H%C3%A9liport_de_Paris_-_Issy-les-Moulineaux_-_Val%C3%A9rie-Andr%C3%A9,JDP,50,2024-06-22T14:11:40+00:00
28867,LFGP,small_airport,"Saint-Florentin - Chéu Airfield",47.98019,3.775583,351,EU,France,FR,Bourgogne-Franche-Comté,FR-BFC,BFC,"Jaulges, Yonne",0,LFGP,,,,,https://fr.wikipedia.org/wiki/A%C3%A9rodrome_de_Saint-Florentin_-_Ch%C3%A9u,,50,2024-07-23T11:44:12+00:00
28991,LFQX,small_airport,"Juvancourt Aerodrome",48.113977,4.819424,1145,EU,France,FR,"Grand Est",FR-GES,GES,"Juvancourt, Aube",0,LFQX,,,,,https://fr.wikipedia.org/wiki/A%C3%A9rodrome_de_Juvancourt,"Aérodrome de Juvancourt",50,2024-06-25T17:22:39+00:00
4165,LFMZ,small_airport,"Lézignan-Corbières Airfield",43.1758,2.73417,207,EU,France,FR,Occitanie,FR-OCC,OCC,Lézignan-Corbières,0,LFMZ,,,,,https://fr.wikipedia.org/wiki/A%C3%A9rodrome_de_L%C3%A9zignan-Corbi%C3%A8res,,50,2024-05-15T19:46:15+00:00
4084,LFCM,small_airport,"Millau-Larzac Airfield",43.9893,3.183,2606,EU,France,FR,Occitanie,FR-OCC,OCC,Millau/Larzac,0,LFCM,,,,https://www.larzac-airport.com/fr-fr/,https://fr.wikipedia.org/wiki/A%C3%A9rodrome_de_Millau-Larzac,,50,2024-05-15T16:54:44+00:00
43438,FR-0098,small_airport,"Narbonne Airfield",43.194168,3.051667,10,EU,France,FR,Occitanie,FR-OCC,OCC,"Narbonne, Aude",0,LFNN,LFNN,,,,https://fr.wikipedia.org/wiki/A%C3%A9rodrome_de_Narbonne-Vinassan,,50,2026-06-09T06:09:40+00:00
28932,LFME,small_airport,"Nîmes Courbessac Airfield",43.853901,4.41361,197,EU,France,FR,Occitanie,FR-OCC,OCC,Nîmes,0,LFME,,,,,https://fr.wikipedia.org/wiki/A%C3%A9rodrome_de_N%C3%AEmes-Courbessac,,50,2024-05-15T19:44:10+00:00
28805,LFDK,small_airport,"Soulac Sur Mer Airfield",45.494999,-1.08222,7,EU,France,FR,Nouvelle-Aquitaine,FR-NAQ,NAQ,Pamiers,0,LFDK,,,,,https://fr.wikipedia.org/wiki/A%C3%A9rodrome_de_Soulac-sur-Mer,,50,2024-05-15T17:29:28+00:00
4098,LFED,small_airport,"Pontivy Airfield",48.05674,-2.920818,407,EU,France,FR,Brittany,FR-BRE,BRE,Pontivy,0,LFED,LFED,,,,https://fr.wikipedia.org/wiki/A%C3%A9rodrome_de_Pontivy,,50,2026-01-29T00:36:36+00:00
28770,LFAB,small_airport,"Dieppe-Saint-Aubin Airport",49.884662,1.08101,344,EU,France,FR,Normandy,FR-NOR,NOR,Saint-Aubin-sur-Scie,0,LFAB,LFAB,DPE,,,https://fr.wikipedia.org/wiki/A%C3%A9rodrome_de_Dieppe_-_Saint-Aubin,,50,2024-04-12T17:30:17+00:00
4103,LFFN,small_airport,"Brienne-le-Château Airfield",48.430396,4.472487,381,EU,France,FR,"Grand Est",FR-GES,GES,Saint-Christophe-Dodinicourt,0,LFFN,,,,,https://fr.wikipedia.org/wiki/A%C3%A9rodrome_de_Brienne-le-Ch%C3%A2teau,,50,2024-05-15T18:37:30+00:00
28966,LFOS,small_airport,"Saint-Valery-Vittefleur Airfield",49.83516,0.655281,272,EU,France,FR,Normandy,FR-NOR,NOR,Saint-Sylvain,0,LFOS,,,,,https://fr.wikipedia.org/wiki/A%C3%A9rodrome_de_Saint-Valery_-_Vittefleur,"Aérodrome de Saint-Valery-Vittefleur",50,2024-05-15T19:53:34+00:00
43646,FR-0304,small_airport,"Saint-Roch Mayères Altisurface",45.94923,6.587126,5118,EU,France,FR,Auvergne-Rhône-Alpes,FR-ARA,ARA,Sallanches,0,,,,LF7430,,,,50,2024-05-15T10:04:07+00:00
28990,LFQU,small_airport,"Sarre-Union Airfield",48.950944,7.078468,837,EU,France,FR,"Grand Est",FR-GES,GES,Sarre-Union,0,LFQU,,,,,https://fr.wikipedia.org/wiki/A%C3%A9rodrome_de_Sarre-Union,,50,2024-05-15T19:59:11+00:00
28992,LFQY,small_airport,"Saverne Steinbourg Airfield",48.753392,7.425402,630,EU,France,FR,"Grand Est",FR-GES,GES,Saverne,0,LFQY,,,,http://aeroclub.saverne.pagesperso-orange.fr/,https://fr.wikipedia.org/wiki/A%C3%A9rodrome_de_Saverne-Steinbourg,,50,2019-10-24T09:36:48+00:00
28868,LFGQ,small_airport,"Semur-en-Auxois Airfield",47.480998,4.342976,1053,EU,France,FR,Bourgogne-Franche-Comté,FR-BFC,BFC,"Semur-en-Auxois, Côte-d'Or",0,LFGQ,,,,,https://fr.wikipedia.org/wiki/A%C3%A9rodrome_de_Semur-en-Auxois,,50,2024-06-22T17:18:08+00:00
28914,LFJS,small_airport,"Soissons-Courmelles Airfield",49.344978,3.282681,509,EU,France,FR,Hauts-de-France,FR-HDF,HDF,"Soissons, Aisne",0,LFJS,,,,,https://fr.wikipedia.org/wiki/A%C3%A9rodrome_de_Soissons_-_Courmelles,"Aérodrome de Soissons - Courmelles",50,2024-06-22T12:54:10+00:00
28828,LFEN,small_airport,"Tours Sorigny Airfield",47.266071,0.698691,299,EU,France,FR,"Centre-Val de Loire",FR-CVL,CVL,"Sorigny, Indre-et-Loire",0,LFEN,,,,,https://fr.wikipedia.org/wiki/A%C3%A9rodrome_de_Tours_-_Sorigny,,50,2025-01-07T16:35:03+00:00
4115,LFHY,small_airport,"Moulins-Montbeugny Airfield",46.534599,3.42372,915,EU,France,FR,Auvergne-Rhône-Alpes,FR-ARA,ARA,Toulon-sur-Allier,0,LFHY,LFHY,,,,https://en.wikipedia.org/wiki/Moulins_-_Montbeugny_Airport,"XMU, Aérodrome de Moulins-Montbeugny",50,2024-12-01T10:57:09+00:00
2988,LF51,small_airport,"Plan-de-Dieu-Orange Airfield",44.18,4.91889,312,EU,France,FR,Provence-Alpes-Côte-d'Azur,FR-PAC,PAC,"Travaillan, Vaucluse",0,LFPR,,,LF8451,http://www.aeroclubduplandedieu.fr,https://fr.wikipedia.org/wiki/A%C3%A9rodrome_d%27Orange_Plan_de_Dieu,,50,2024-10-30T16:02:55+00:00
28951,LFNS,small_airport,"Sistéron-Vaumeilh Airfield",44.286471,5.929086,1772,EU,France,FR,Provence-Alpes-Côte-d'Azur,FR-PAC,PAC,"Vaumeilh, Alpes-de-Haute-Provence",0,LFNS,,,,http://www.aerodrome-sisteron.com,https://fr.wikipedia.org/wiki/A%C3%A9rodrome_de_Sisteron-Vaumeilh,Sistéron-Thèze,50,2024-10-30T13:26:47+00:00
28963,LFON,small_airport,"Dreux Vernouillet Airfield",48.70543,1.361155,443,EU,France,FR,"Centre-Val de Loire",FR-CVL,CVL,"Vernouillet, Yvelines",0,LFON,,,,,https://fr.wikipedia.org/wiki/A%C3%A9rodrome_de_Dreux_-_Vernouillet,,50,2025-01-08T00:58:57+00:00
4168,LFOA,medium_airport,"Avord (BA 702) Air Base",47.053299,2.6325,580,EU,France,FR,"Centre-Val de Loire",FR-CVL,CVL,Avord,0,LFOA,,,,,https://en.wikipedia.org/wiki/Avord_Air_Base,,750,2021-08-01T09:59:29+00:00
35155,FR-JCA,heliport,"Cannes Croisette Heliport",43.535287,7.038296,,EU,France,FR,Provence-Alpes-Côte-d'Azur,FR-PAC,PAC,"Cannes, Alpes-Maritimes",1,,,,,,,"Palm Beach",625,2024-10-30T14:47:13+00:00
4191,LFPV,medium_airport,"Vélizy-Villacoublay Air Base",48.774406,2.203102,584,EU,France,FR,Île-de-France,FR-IDF,IDF,"Vélizy-Villacoublay, Yvelines",0,LFPV,,VIY,,,https://en.wikipedia.org/wiki/V%C3%A9lizy_%E2%80%93_Villacoublay_Air_Base,"BA 107",599,2024-06-22T13:27:35+00:00
4229,FR-1240,closed,"Metz-Frescaty (BA 128) Air Base",49.073415,6.132946,629,EU,France,FR,"Grand Est",FR-GES,GES,Augny,0,,,,,,,"LFSF, MZM",575,2025-02-25T14:38:02+00:00
4172,LFOE,medium_airport,"Évreux-Fauville (BA 105) Air Base",49.028702,1.21986,464,EU,France,FR,Normandy,FR-NOR,NOR,"Fauville, Eure",0,LFOE,LFOE,EVX,,,https://en.wikipedia.org/wiki/%C3%89vreux-Fauville_Air_Base,,575,2025-01-08T01:02:39+00:00
4059,LFBC,medium_airport,"Cazaux (BA 120) Air Base",44.533298,-1.125,84,EU,France,FR,Nouvelle-Aquitaine,FR-NAQ,NAQ,"Cazaux (La Teste-de-Buch)",0,LFBC,,,,,https://en.wikipedia.org/wiki/Cazaux_Air_Base,,500,2024-04-12T18:48:11+00:00
4187,LFPM,medium_airport,"Melun-Villaroche Airfield",48.604698,2.67112,302,EU,France,FR,Île-de-France,FR-IDF,IDF,"Moissy-Cramayel, Seine-et-Marne",0,LFPM,,,,,https://en.wikipedia.org/wiki/Melun_Villaroche_Aerodrome,,500,2024-06-22T16:32:28+00:00
4153,LFMI,medium_airport,"Istres-Le Tubé Air Base",43.522701,4.92384,82,EU,France,FR,Provence-Alpes-Côte-d'Azur,FR-PAC,PAC,"Istres, Bouches-du-Rhône",0,LFMI,LFMI,,,,https://en.wikipedia.org/wiki/Istres-Le_Tub%C3%A9_Air_Base,"Istres Air Base, BA125, Base aérienne 125 Istres, Pôle aéronautique Jean Sarrail",475,2025-01-15T16:13:49+00:00
4157,LFMO,medium_airport,"Orange-Caritat (BA 115) Air Base",44.140499,4.86672,197,EU,France,FR,Provence-Alpes-Côte-d'Azur,FR-PAC,PAC,"Orange, Vaucluse",0,LFMO,,,,,https://en.wikipedia.org/wiki/Orange-Caritat_Air_Base,,475,2025-01-29T14:14:39+00:00
4063,LFBG,medium_airport,"Cognac-Châteaubernard (BA 709) Air Base",45.658298,-0.3175,102,EU,France,FR,Nouvelle-Aquitaine,FR-NAQ,NAQ,Cognac/Châteaubernard,0,LFBG,LFBG,CNG,,,https://en.wikipedia.org/wiki/Cognac_%E2%80%93_Ch%C3%A2teaubernard_Air_Base,,375,2024-04-07T06:24:51+00:00
4232,LFSI,medium_airport,"Saint-Dizier – Robinson Air Base",48.636002,4.89942,458,EU,France,FR,"Grand Est",FR-GES,GES,Saint-Dizier,0,LFSI,,,,,https://en.wikipedia.org/wiki/Saint-Dizier_%E2%80%93_Robinson_Air_Base,"BA 113",300,2022-10-30T11:39:15+00:00
4235,LFSO,medium_airport,"Nancy-Ochey (BA 133) Air Base",48.583099,5.955,1106,EU,France,FR,"Grand Est",FR-GES,GES,Thuilley-aux-Groseilles,0,LFSO,,,,,https://en.wikipedia.org/wiki/Nancy_%E2%80%93_Ochey_Air_Base,,300,2024-05-15T08:17:52+00:00
4062,LFBF,medium_airport,"Toulouse-Francazal (BA 101) Air Base",43.545601,1.3675,535,EU,France,FR,Occitanie,FR-OCC,OCC,Toulouse/Francazal,0,LFBF,,,,https://www.toulouse-francazal.aeroport.fr/,https://fr.wikipedia.org/wiki/A%C3%A9roport_de_Toulouse_Francazal,,300,2024-05-15T16:45:03+00:00
4133,LFLD,medium_airport,"Bourges airport",47.060158,2.369633,529,EU,France,FR,"Centre-Val de Loire",FR-CVL,CVL,Bourges,0,LFLD,LFLD,BOU,,https://www.bourges.aeroport.fr/en,https://en.wikipedia.org/wiki/Bourges_Airport,,250,2025-08-18T15:51:18+00:00
4170,LFOC,medium_airport,"Châteaudun Airfield",48.057907,1.379309,433,EU,France,FR,"Centre-Val de Loire",FR-CVL,CVL,"Châteaudun, Eure-et-Loir",0,LFOC,,,,https://airchateaudun.com/,https://en.wikipedia.org/wiki/Ch%C3%A2teaudun_Air_Base,,250,2025-01-08T01:04:51+00:00
4205,LFQW,medium_airport,"Vesoul-Frotey Airfield",47.638588,6.204443,1249,EU,France,FR,Bourgogne-Franche-Comté,FR-BFC,BFC,"Frotey-lès-Vesoul, Haute-Saône",0,LFQW,,,,,https://fr.wikipedia.org/wiki/A%C3%A9rodrome_de_Vesoul_-_Frotey,,250,2024-06-25T13:03:30+00:00
4051,LFAG,medium_airport,"Péronne Saint-Quentin Airfield",49.868871,3.029566,295,EU,France,FR,Hauts-de-France,FR-HDF,HDF,"Monchy-Lagache, Somme",0,LFAG,LFAG,,,,https://en.wikipedia.org/wiki/Peronne-St_Quentin_Airfield,"Aérodrome de Péronne Saint-Quentin",250,2025-10-04T17:03:15+00:00
4056,LFAV,medium_airport,"Valenciennes-Denain Airfield",50.327823,3.461061,165,EU,France,FR,Hauts-de-France,FR-HDF,HDF,Prouvy,0,LFAV,LFAV,,,,https://en.wikipedia.org/wiki/Valenciennes-Denain_Airport,,250,2025-10-04T18:02:17+00:00
4079,LFCG,medium_airport,"Aérodrome de Saint-Girons - Antichan",43.007801,1.10315,1368,EU,France,FR,Occitanie,FR-OCC,OCC,Saint-Girons/Antichan,0,LFCG,,,,,https://fr.wikipedia.org/wiki/A%C3%A9rodrome_de_Saint-Girons_-_Antichan,,250,2024-04-12T19:12:32+00:00
4180,LFOU,small_airport,"Cholet Le Pontreau airfield",47.0821,-0.877064,443,EU,France,FR,Pays-de-la-Loire,FR-PDL,PDL,Cholet,0,LFOU,LFOU,CET,,,https://en.wikipedia.org/wiki/Cholet_Le_Pontreau_Airport,,150,2025-08-18T22:56:12+00:00
4094,LFDI,small_airport,"Libourne-Artigues-de-Lussac Airfield",44.98347,-0.138359,157,EU,France,FR,Nouvelle-Aquitaine,FR-NAQ,NAQ,Libourne/Artigues-de-Lussac,0,LFDI,,,,,https://fr.wikipedia.org/wiki/A%C3%A9rodrome_de_Libourne_-_Artigues-de-Lussac,,150,2024-05-15T17:26:57+00:00
28872,LFGU,small_airport,"Sarreguemines Neunkirch Airfield",49.128101,7.10833,853,EU,France,FR,"Grand Est",FR-GES,GES,,0,LFGU,,,,,https://fr.wikipedia.org/wiki/A%C3%A9rodrome_de_Sarreguemines_-_Neunkirch,,50,2024-05-15T18:49:36+00:00
29014,FR-1258,closed,"Bitche Army Air Base",49.06007,7.45009,984,EU,France,FR,"Grand Est",FR-GES,GES,,0,,,,,,,"LFXG, LFXG",50,2025-02-25T14:48:54+00:00
529022,FR-0935,small_airport,"Pont toussaint Airfield",50.350833,3.774722,397,EU,France,FR,Hauts-de-France,FR-HDF,HDF,,0,,,,LF5954,,,,50,2024-05-13T17:12:04+00:00
28788,LFCA,small_airport,"Aérodrome de Châtellerault-Targé",46.781399,0.551944,207,EU,France,FR,Nouvelle-Aquitaine,FR-NAQ,NAQ,,0,LFCA,,,,,https://fr.wikipedia.org/wiki/A%C3%A9rodrome_de_Ch%C3%A2tellerault_-_Targ%C3%A9,,50,2024-04-29T17:58:57+00:00
28803,LFDF,small_airport,"Aérodrome de Sainte-Foy-la-Grande",44.8536,0.176667,282,EU,France,FR,Nouvelle-Aquitaine,FR-NAQ,NAQ,,0,LFDF,,,,,https://fr.wikipedia.org/wiki/A%C3%A9rodrome_de_Sainte-Foy-la-Grande,,50,2024-05-15T17:25:02+00:00
28808,LFDP,small_airport,"St Pierre d'Oléron Airfield",45.959202,-1.31611,20,EU,France,FR,Nouvelle-Aquitaine,FR-NAQ,NAQ,,0,LFDP,,,,http://ac.oleron.free.fr,https://fr.wikipedia.org/wiki/A%C3%A9rodrome_de_Saint-Pierre-d%27Ol%C3%A9ron,,50,2024-05-15T18:15:01+00:00
28814,LFDV,small_airport,"Couhé Vérac Airfield",46.2728,0.190556,499,EU,France,FR,Nouvelle-Aquitaine,FR-NAQ,NAQ,,0,LFDV,,,,,https://fr.wikipedia.org/wiki/A%C3%A9rodrome_de_Couh%C3%A9_-_V%C3%A9rac,,50,2024-05-15T18:22:57+00:00
28817,LFDY,small_airport,"Bordeaux Yvrac Airfield",44.876049,-0.480416,240,EU,France,FR,Nouvelle-Aquitaine,FR-NAQ,NAQ,,0,LFDY,,,,,https://fr.wikipedia.org/wiki/A%C3%A9rodrome_de_Bordeaux_-_Yvrac,,50,2024-05-15T18:24:21+00:00
28895,LFIB,small_airport,"Aérodrome de Belvès Saint-Pardoux",44.782501,0.958889,791,EU,France,FR,Nouvelle-Aquitaine,FR-NAQ,NAQ,,0,LFIB,,,,,https://fr.wikipedia.org/wiki/A%C3%A9rodrome_de_Belv%C3%A8s_-_Saint-Pardoux,,50,2024-05-15T18:55:04+00:00
28897,LFIH,small_airport,"Chalais Airfield",45.268101,0.016944,285,EU,France,FR,Nouvelle-Aquitaine,FR-NAQ,NAQ,,0,LFIH,,,,,https://fr.wikipedia.org/wiki/A%C3%A9rodrome_de_Chalais,,50,2024-05-15T18:57:35+00:00
28906,LFIY,small_airport,"St Jean d'Angély Airfield",45.964993,-0.523374,246,EU,France,FR,Nouvelle-Aquitaine,FR-NAQ,NAQ,,0,LFIY,,,,,https://fr.wikipedia.org/wiki/A%C3%A9rodrome_de_Saint-Jean-d%27Ang%C3%A9ly_-_Saint-Denis-du-Pin,,50,2024-05-15T19:01:34+00:00
29012,LFXB,small_airport,"Saintes Thénac Airfield",45.7019,-0.636111,118,EU,France,FR,Nouvelle-Aquitaine,FR-NAQ,NAQ,,0,LFXB,,,,,,,50,2024-05-15T20:20:44+00:00
506406,FR-0158,small_airport,"Bournizeaux Airfield",46.88053,-0.28448,430,EU,France,FR,Nouvelle-Aquitaine,FR-NAQ,NAQ,,0,,,,,https://www.bournizeaux.com/pilot-info/,,"PPR, Private",50,2024-05-13T20:08:38+00:00
28896,LFID,small_airport,"Aérodrome de Condom - Valence-sur-Baïse",43.910301,0.387222,444,EU,France,FR,Occitanie,FR-OCC,OCC,,0,LFID,,,,,https://fr.wikipedia.org/wiki/A%C3%A9rodrome_de_Condom_-_Valence-sur-Ba%C3%AFse,,50,2024-05-15T18:55:26+00:00
28949,LFNQ,small_airport,"Mont Louis La Quillane Airfield",42.543598,2.12,5610,EU,France,FR,Occitanie,FR-OCC,OCC,,0,LFNQ,,,,,https://fr.wikipedia.org/wiki/A%C3%A9rodrome_de_Mont-Louis_-_La_Quillane,,50,2024-05-15T19:50:55+00:00
29007,LFTN,small_airport,"La Grand'combe Airfield",44.2444,4.01222,1647,EU,France,FR,Occitanie,FR-OCC,OCC,,0,LFTN,,,,,https://fr.wikipedia.org/wiki/A%C3%A9rodrome_de_La_Grand%27Combe,,50,2024-05-15T20:16:32+00:00
29027,LFYS,small_airport,"Ste Léocadie Airfield",42.447201,2.01083,4331,EU,France,FR,Occitanie,FR-OCC,OCC,,0,LFYS,,,,,https://fr.wikipedia.org/wiki/A%C3%A9rodrome_de_Sainte-L%C3%A9ocadie,,50,2024-05-15T20:25:40+00:00
333895,FR-0406,small_airport,"Vallon des Bergons",43.020745,-0.178995,3445,EU,France,FR,Occitanie,FR-OCC,OCC,,0,,,,LF6536,https://basulm.ffplum.fr/PDF/LF6536.pdf,,bergons,50,2020-04-17T17:27:14+00:00
28958,LFNZ,small_airport,"Le Mazet De Romanin Airfield",43.768902,4.89361,387,EU,France,FR,Provence-Alpes-Côte-d'Azur,FR-PAC,PAC,,0,LFNZ,,,,,https://fr.wikipedia.org/wiki/A%C3%A9rodrome_du_Mazet_de_Romanin,,50,2024-05-15T19:52:33+00:00
29009,LFTQ,small_airport,"Châteaubriant Pouancé Airfield",47.739562,-1.189519,322,EU,France,FR,Pays-de-la-Loire,FR-PDL,PDL,,0,LFTQ,,,,,https://fr.wikipedia.org/wiki/A%C3%A9rodrome_de_Ch%C3%A2teaubriant_-_Pouanc%C3%A9,,50,2024-05-15T20:17:58+00:00
28878,LFHC,small_airport,"Aérodrome de Pérouges - Meximieux",45.869701,5.18722,702,EU,France,FR,Auvergne-Rhône-Alpes,FR-ARA,ARA,,0,LFHC,,,,,https://fr.wikipedia.org/wiki/A%C3%A9rodrome_de_P%C3%A9rouges_-_Meximieux,,50,2024-05-15T18:51:47+00:00
28894,FR-1247,closed,"Ancien aérodrome de Sallanches Mont-Blanc",45.953899,6.63917,1755,EU,France,FR,Auvergne-Rhône-Alpes,FR-ARA,ARA,,0,,,,,,,"LFHZ, LFHZ",50,2025-02-25T14:48:53+00:00
28918,LFKE,small_airport,"Saint-Jean-en-Royans Airfield",45.027802,5.31,866,EU,France,FR,Auvergne-Rhône-Alpes,FR-ARA,ARA,,0,LFKE,,,,,https://fr.wikipedia.org/wiki/A%C3%A9rodrome_de_Saint-Jean-en-Royans,,50,2024-05-15T19:28:42+00:00
28931,LFLZ,small_airport,"Aérodrome de Feurs - Chambéon",45.70622,4.19734,1096,EU,France,FR,Auvergne-Rhône-Alpes,FR-ARA,ARA,,0,LFLZ,,,,,https://fr.wikipedia.org/wiki/A%C3%A9rodrome_de_Feurs_-_Chamb%C3%A9on,,50,2024-05-15T19:43:39+00:00
315432,LFSS,small_airport,"Saint Sulpice des Landes",47.791667,-1.643611,312,EU,France,FR,Brittany,FR-BRE,BRE,,0,LFSS,,,,,,,50,2024-05-15T20:06:22+00:00
28890,LFHT,small_airport,"Ambert - Le Poyet Airfield",45.516196,3.74514,1847,EU,France,FR,Auvergne-Rhône-Alpes,FR-ARA,ARA,"Ambert, Puy-de-Dôme",0,LFHT,,,,https://aeroclub-ambert.fr/,https://fr.wikipedia.org/wiki/A%C3%A9rodrome_d%27Ambert_-_Le_Poyet,"Aérodrome d'Ambert - Le Poyet",50,2024-10-24T15:39:56+00:00
4102,LFFI,small_airport,"Ancenis Airfield",47.4081,-1.1775,111,EU,France,FR,Pays-de-la-Loire,FR-PDL,PDL,Ancenis,0,LFFI,,,,,https://fr.wikipedia.org/wiki/A%C3%A9rodrome_d%27Ancenis,,50,2024-05-15T18:35:29+00:00
28790,LFCD,small_airport,"Aérodrome d'Andernos",44.755,-1.065,66,EU,France,FR,Nouvelle-Aquitaine,FR-NAQ,NAQ,Andernos-les-Bains,0,LFCD,,,,,https://fr.wikipedia.org/wiki/A%C3%A9rodrome_d%27Andernos-les-Bains,,50,2024-05-15T16:51:58+00:00
28915,LFJT,small_airport,"Tours Le Louroux Airfield",47.149251,0.711125,413,EU,France,FR,"Centre-Val de Loire",FR-CVL,CVL,Angers,0,LFJT,,,,,https://fr.wikipedia.org/wiki/A%C3%A9rodrome_de_Tours_-_Le_Louroux,"Aérodrome de Tours-Le Louroux",50,2024-04-29T18:09:36+00:00
28840,LFFE,small_airport,"Enghien-Moisselles Airfield",49.046016,2.353976,335,EU,France,FR,Île-de-France,FR-IDF,IDF,"Attainville, Val-d'Oise",0,LFFE,,,,,https://en.wikipedia.org/wiki/Enghien_Moisselles_Airfield,,50,2024-06-22T13:12:07+00:00
4196,LFQF,small_airport,"Autun-Bellevue Airfield",46.967277,4.260925,997,EU,France,FR,Bourgogne-Franche-Comté,FR-BFC,BFC,"Autun, Saône-et-Loire",0,LFQF,,,,,https://fr.wikipedia.org/wiki/A%C3%A9rodrome_d%27Autun-Bellevue,,50,2025-01-08T09:17:48+00:00
43640,FR-0298,small_airport,"Altisurface de Morzine-Avoriaz",46.196667,6.759722,5709,EU,France,FR,Auvergne-Rhône-Alpes,FR-ARA,ARA,Avoriaz,0,,,,LF7427,,,,50,2024-05-14T11:21:42+00:00
28835,LFEX,small_airport,"Nancy Azelot Airfield",48.59347,6.241035,961,EU,France,FR,"Grand Est",FR-GES,GES,"Azelot, Meurthe-et-Moselle",0,LFEX,,,,,https://fr.wikipedia.org/wiki/A%C3%A9rodrome_de_Nancy_-_Azelot,,50,2024-06-26T10:09:29+00:00
28987,LFQO,small_airport,"Marcq-en-Baroeul Airfield",50.687199,3.07556,69,EU,France,FR,Hauts-de-France,FR-HDF,HDF,Bondues,0,LFQO,,,,,https://en.wikipedia.org/wiki/Marcq-en-Baroeul_Airport,"Aérodrome de Lille/Marcq-en-Barœul, Aérodrome de Marcq-en-Barœul/Bondues, Advanced Landing Ground B-57 Lille/Wambrechie",50,2023-12-23T13:44:21+00:00
28921,LFKL,small_airport,"Lyon Brindas Airfield",45.710544,4.696675,1040,EU,France,FR,Auvergne-Rhône-Alpes,FR-ARA,ARA,"Brindas, Rhône",0,LFKL,,,,,https://fr.wikipedia.org/wiki/A%C3%A9rodrome_de_Lyon_-_Brindas,,50,2024-10-30T15:51:08+00:00
28871,LFGT,small_airport,"Sarrebourg Buhl Airfield",48.716875,7.074316,873,EU,France,FR,"Grand Est",FR-GES,GES,Buhl-Lorraine,0,LFGT,,,,,https://fr.wikipedia.org/wiki/A%C3%A9rodrome_de_Sarrebourg_-_Buhl,,50,2024-05-15T18:49:02+00:00
28848,LFFQ,small_airport,"Cerny-La Ferté Alais Airfield",48.498571,2.336891,453,EU,France,FR,Île-de-France,FR-IDF,IDF,"Cerny, Essonne",0,LFFQ,,,,https://www.musee-volant-salis.fr/,https://fr.wikipedia.org/wiki/A%C3%A9rodrome_de_La_Fert%C3%A9-Alais,"Jean-Baptiste Salis, Plateau Ardenay, AVA, Aero Vintage Academy, Salis",50,2024-11-14T04:39:12+00:00
43605,FR-0263,small_airport,"Col du Béal Altiport",45.680777,3.789052,4823,EU,France,FR,Auvergne-Rhône-Alpes,FR-ARA,ARA,"Chalmazel-Jeansagnière, Loire",0,,,,LF4221,,,,50,2024-10-24T15:41:04+00:00
28842,LFFH,small_airport,"Château-Thierry-Belleau Airfield",49.066753,3.355465,728,EU,France,FR,Hauts-de-France,FR-HDF,HDF,"Château-Thierry, Aisne",0,LFFH,,,,,https://en.wikipedia.org/wiki/Ch%C3%A2teau-Thierry_%E2%80%93_Belleau_Aerodrome,,50,2024-06-22T12:59:21+00:00
28860,LFGG,small_airport,"Belfort Chaux Airfield",47.700732,6.831265,1368,EU,France,FR,Bourgogne-Franche-Comté,FR-BFC,BFC,Chaux,0,LFGG,,,,,https://en.wikipedia.org/wiki/Belfort_Chaux_Airport,,50,2024-05-15T08:27:10+00:00
43596,FR-0254,small_airport,"Cipières Alpes d'Azur Ultralight Airfield",43.779447,6.865206,3789,EU,France,FR,Provence-Alpes-Côte-d'Azur,FR-PAC,PAC,"Cipières, Alpes-Maritimes",0,,,,LF0652,,,,50,2025-01-29T21:08:41+00:00
43597,FR-0255,small_airport,"Clamensane Altisurface",44.314371,6.071514,2933,EU,France,FR,Provence-Alpes-Côte-d'Azur,FR-PAC,PAC,"Clamensane, Alpes-de-Haute-Provence",0,,,,LF0421,,,"Trois Fontaines",50,2024-10-30T13:29:41+00:00
333578,FR-0392,small_airport,"Col de Bacchus Airstrip",44.8531,5.168788,3200,EU,France,FR,Auvergne-Rhône-Alpes,FR-ARA,ARA,"Col de Bacchus",0,,,,LF2623,,,,50,2020-03-13T23:14:11+00:00
329110,FR-0374,small_airport,"Corbonod-Seyssel Private Airfield",45.9618,5.8178,1175,EU,France,FR,Auvergne-Rhône-Alpes,FR-ARA,ARA,"Corbonod, Ain",0,,,,LF0151,,,,50,2024-07-23T11:46:02+00:00
28874,LFGX,small_airport,"Champagnole-Crotenay Airfield",46.763032,5.819664,1745,EU,France,FR,Bourgogne-Franche-Comté,FR-BFC,BFC,"Crotenay, Jura",0,LFGX,,,,,https://fr.wikipedia.org/wiki/A%C3%A9rodrome_de_Champagnole_-_Crotenay,"Aérodrome de Champagnole - Crotenay",50,2024-06-22T17:00:32+00:00
28854,LFFX,small_airport,"Tournus Cuisery Airfield",46.56206,4.975629,689,EU,France,FR,Bourgogne-Franche-Comté,FR-BFC,BFC,"Cuisery, Saône-et-Loire",0,LFFX,,,,,,,50,2024-10-28T11:47:01+00:00
28957,FR-1275,small_airport,"Saint-Étienne-en-Dévoluy AltiSurface",44.667877,5.904735,6201,EU,France,FR,Provence-Alpes-Côte-d'Azur,FR-PAC,PAC,Dévoluy,0,,,,LF0538,,,,50,2025-03-08T22:53:22+00:00
28821,LFEF,small_airport,"Amboise Dierre Airfield",47.339771,0.945861,180,EU,France,FR,"Centre-Val de Loire",FR-CVL,CVL,"Dierre, Indre-et-Loire",0,LFEF,LFEF,,,http://www.ailestourangelles.fr/en/,https://fr.wikipedia.org/wiki/A%C3%A9rodrome_d%27Amboise_-_Dierre,,50,2026-01-29T01:44:49+00:00
29011,FR-1256,closed,"Fréjus Airport",43.417524,6.735697,33,EU,France,FR,Provence-Alpes-Côte-d'Azur,FR-PAC,PAC,"Fréjus, Var",0,,,,,,https://en.wikipedia.org/wiki/Frejus_Airport,"FRJ, LFTU",50,2025-02-25T14:48:54+00:00
28804,LFDG,small_airport,"Aérodrome de Gaillac - Lisle-sur-Tarn",43.8839,1.87556,446,EU,France,FR,Occitanie,FR-OCC,OCC,Gaillac,0,LFDG,LFDG,,,,https://fr.wikipedia.org/wiki/A%C3%A9rodrome_de_Gaillac_-_Lisle-sur-Tarn,,50,2024-05-15T17:26:23+00:00
28775,LFAK,small_airport,"Dunkerque-Les Moëres Airfield",51.039559,2.549129,-3,EU,France,FR,Hauts-de-France,FR-HDF,HDF,Ghyvelde,0,LFAK,LFAK,,,http://www.aeroclub-dunkerque.com/,https://en.wikipedia.org/wiki/Dunkerque_%E2%80%93_Les_Mo%C3%ABres_Airfield,"Dunkirk, Dunkerque Aeroclub",50,2025-10-04T17:14:21+00:00
28866,LFGO,small_airport,"Pont-sur-Yonne Airfield",48.291587,3.245745,236,EU,France,FR,Bourgogne-Franche-Comté,FR-BFC,BFC,"Gisy-les-Nobles, Yonne",0,LFGO,,,,,https://fr.wikipedia.org/wiki/A%C3%A9rodrome_de_Pont-sur-Yonne,,50,2024-06-22T16:09:31+00:00
29018,LFXQ,small_airport,"Coëtquidan Air Base",47.943056,-2.185872,499,EU,France,FR,Brittany,FR-BRE,BRE,Guer,0,LFXQ,,,,,,,50,2024-05-15T20:24:29+00:00
4100,LFES,small_airport,"Guiscriff Scaer Airfield",48.052502,-3.66472,574,EU,France,FR,Brittany,FR-BRE,BRE,Guiscriff,0,LFES,,,,,https://fr.wikipedia.org/wiki/A%C3%A9rodrome_de_Guiscriff_-_Sca%C3%ABr,,50,2024-05-15T18:29:30+00:00
527720,FR-0573,small_airport,"Hommes Volants Ultralight Airfield",47.418534,0.323495,285,EU,France,FR,"Centre-Val de Loire",FR-CVL,CVL,"Hommes, Indre-et-Loire",0,,,,LF3730,http://www.hommes-volants.fr/,,"Base ULM Hommes Volants, Base ULM Jacopeau, Jacopeau Ultralight Airfield",50,2024-06-30T06:14:15+00:00
43636,FR-0294,small_airport,"Altisurface de l'Escoulin",44.816111,5.220278,2345,EU,France,FR,Auvergne-Rhône-Alpes,FR-ARA,ARA,L'Escoulin,0,,,,LF2624,https://www.afpm.fr/Terrains/Terrains_Montagne.php,,,50,2024-05-14T10:19:43+00:00
28776,LFAL,small_airport,"La Flèche-Thorée-les-Pins Airfield",47.69261,-0.002198,120,EU,France,FR,Pays-de-la-Loire,FR-PDL,PDL,"La Flèche, Sarthe",0,LFAL,LFAL,,,http://www.aeroclublafleche.fr/,https://fr.wikipedia.org/wiki/Aérodrome_de_La_Flèche_-_Thorée-les-Pins,,50,2025-10-04T17:22:12+00:00
28782,LFAU,small_airport,"Aérodrome de Vauville",49.622775,-1.830688,456,EU,France,FR,Normandy,FR-NOR,NOR,"La Hague",0,LFAU,LFAU,,,http://vvvauville.free.fr/,,,50,2025-10-04T17:56:13+00:00
28940,FR-1250,closed,"Pont-Saint-Esprit Airfield",44.269402,4.65333,144,EU,France,FR,Occitanie,FR-OCC,OCC,"Lamotte-du-Rhône, Vaucluse",0,,,,,,,LFND,50,2025-02-25T14:48:53+00:00
28773,LFAF,small_airport,"Laon-Chambry Airfield",49.595798,3.63167,256,EU,France,FR,Hauts-de-France,FR-HDF,HDF,"Laon, Aisne",0,LFAF,LFAF,,,,https://fr.wikipedia.org/wiki/A%C3%A9rodrome_de_Laon_-_Chambry,XLN,50,2025-10-04T16:58:59+00:00
28980,FR-1252,closed,"Brétigny-sur-Orge Air Base",48.5961,2.33222,270,EU,France,FR,Île-de-France,FR-IDF,IDF,"Le Plessis-Pâté, Essonne",0,,,,,,,LFPY,50,2025-02-25T14:48:53+00:00
43652,FR-0309,small_airport,"Val Thorens Altiport",45.281685,6.569465,8100,EU,France,FR,Auvergne-Rhône-Alpes,FR-ARA,ARA,"Les Belleville, Savoie",0,,,,LF7327,,,,50,2025-01-29T13:54:16+00:00
28832,LFEU,small_airport,"Bar-le-Duc Airfield",48.867519,5.185068,909,EU,France,FR,"Grand Est",FR-GES,GES,"Les Hauts-de-Chée",0,LFEU,LFEU,,,,https://fr.wikipedia.org/wiki/A%C3%A9rodrome_de_Bar-le-Duc_-_Les_Hauts-de-Ch%C3%A9e,"Bar le Duc, South Meuse Aeroclub, XBD",50,2026-01-29T07:06:30+00:00
29020,LFXU,small_airport,"Les Mureaux Airfield",48.998299,1.94278,89,EU,France,FR,Île-de-France,FR-IDF,IDF,"Les Mureaux, Yvelines",0,LFXU,,,,,https://fr.wikipedia.org/wiki/A%C3%A9rodrome_des_Mureaux,,50,2024-06-22T14:22:25+00:00
28986,LFQN,small_airport,"Saint-Omer Wizernes Airfield",50.727456,2.232586,249,EU,France,FR,Hauts-de-France,FR-HDF,HDF,"Longuenesse, Pas-de-Calais",0,LFQN,,,,https://www.aerodromes.fr/aeroport-de-saint-omer---wizernes-lfqn-a350.html,https://fr.wikipedia.org/wiki/A%C3%A9rodrome_de_Saint-Omer_-_Wizernes,,50,2024-06-22T12:23:06+00:00
28771,LFAD,small_airport,"Compiègne Margny Airfield",49.431242,2.801514,315,EU,France,FR,Hauts-de-France,FR-HDF,HDF,Margny-lès-Compiègne,0,LFAD,LFAD,,,,https://fr.wikipedia.org/wiki/A%C3%A9rodrome_de_Compi%C3%A8gne_-_Margny,XCP,50,2025-08-19T08:57:31+00:00
4096,LFDM,small_airport,"Marmande – Virazeil Airfield",44.499049,0.200511,110,EU,France,FR,Nouvelle-Aquitaine,FR-NAQ,NAQ,Marmande,0,LFDM,,,,,https://en.wikipedia.org/wiki/Marmande_%E2%80%93_Virazeil_Airport,,50,2024-06-22T04:22:57+00:00
4119,LFJB,small_airport,"Mauléon Airfield",46.902802,-0.697778,576,EU,France,FR,Nouvelle-Aquitaine,FR-NAQ,NAQ,Mauléon,0,LFJB,,,,,https://en.wikipedia.org/wiki/Maul%C3%A9on_Aerodrome,,50,2024-05-15T19:02:20+00:00
28829,LFEP,small_airport,"Pouilly-Maconge Airfield",47.221401,4.56111,1411,EU,France,FR,Bourgogne-Franche-Comté,FR-BFC,BFC,Meilly-sur-Rouvres,0,LFEP,,,,,https://fr.wikipedia.org/wiki/A%C3%A9rodrome_de_Pouilly_-_Maconge,,50,2024-05-15T18:28:07+00:00
29017,FR-1261,closed,"Mourmelon Air Base",49.111401,4.36694,387,EU,France,FR,"Grand Est",FR-GES,GES,Mourmelon-le-Grand,0,,,,,,,LFXM,50,2025-02-25T14:48:54+00:00
28806,LFDL,small_airport,"Loudun Airfield",47.035941,0.100619,315,EU,France,FR,Nouvelle-Aquitaine,FR-NAQ,NAQ,Pamiers,0,LFDL,,,,http://www.aeroclubloudun.fr/,https://fr.wikipedia.org/wiki/A%C3%A9rodrome_de_Loudun,"Aeroclub Loudunais",50,2024-02-28T14:56:20+00:00
28925,LFKY,small_airport,"Belley-Peyrieu Airfield",45.694121,5.691533,739,EU,France,FR,Auvergne-Rhône-Alpes,FR-ARA,ARA,"Peyrieu, Ain",0,LFKY,,,,,https://fr.wikipedia.org/wiki/A%C3%A9rodrome_de_Belley_-_Peyrieu,"Aéroclub de Belley-Peyrieu, Aérodrome de Belley-Peyrieu",50,2024-06-22T16:46:24+00:00
355191,FR-0499,small_airport,"Les Ailes d'Eure et Loir Airfield",48.59244,1.53759,480,EU,France,FR,"Centre-Val de Loire",FR-CVL,CVL,"Pierres, Eure-et-Loir",0,,,,LF2834,,,,50,2025-01-08T00:54:43+00:00
28785,LFBJ,small_airport,"Aérodrome de Saint-Junien",45.903301,0.92,902,EU,France,FR,Nouvelle-Aquitaine,FR-NAQ,NAQ,Poitiers,0,LFBJ,,,,,https://fr.wikipedia.org/wiki/A%C3%A9rodrome_de_Saint-Junien,,50,2024-05-15T16:47:08+00:00
29003,LFSV,small_airport,"Pont-Saint-Vincent Airfield",48.600127,6.056514,1339,EU,France,FR,"Grand Est",FR-GES,GES,"Pont-Saint-Vincent, Meurthe-et-Moselle",0,LFSV,,,,http://acam54.fr/,,,50,2024-06-26T10:04:26+00:00
29008,LFTP,small_airport,"Puimoisson Airfield",43.86889,6.16278,2523,EU,France,FR,Provence-Alpes-Côte-d'Azur,FR-PAC,PAC,"Puimoisson, Alpes de Haute-Provence",0,LFTP,,,,http://www.puivolavoile.com/?lang=en,https://fr.wikipedia.org/wiki/A%C3%A9rodrome_de_Puimoisson,,50,2024-10-30T10:10:35+00:00
28952,LFNT,small_airport,"Avignon-Pujaut Airfield",43.996899,4.75556,148,EU,France,FR,Occitanie,FR-OCC,OCC,"Pujaut, Gard",0,LFNT,,,,,https://fr.wikipedia.org/wiki/A%C3%A9rodrome_d%27Avignon_-_Pujaut,,50,2024-10-28T10:43:49+00:00
28484,LFER,small_airport,"Redon Bains-sur-Oust Airfield",47.699402,-2.03667,223,EU,France,FR,Brittany,FR-BRE,BRE,Redon,0,LFER,,,,,https://fr.wikipedia.org/wiki/A%C3%A9rodrome_de_Redon_-_Bains-sur-Oust,,50,2024-05-15T18:28:54+00:00
28875,LFGY,small_airport,"Saint-Dié-Remomeix Airfield",48.266475,7.007447,1184,EU,France,FR,"Grand Est",FR-GES,GES,Remomeix,0,LFGY,,,,,https://fr.wikipedia.org/wiki/A%C3%A9rodrome_de_Saint-Di%C3%A9_-_Remomeix,"Aérodrome de Saint-Dié-Remomeix",50,2024-05-15T18:50:22+00:00
28995,LFRP,small_airport,"Ploërmel Loyat Airfield",48.0028,-2.37722,236,EU,France,FR,Brittany,FR-BRE,BRE,Rennes,0,LFRP,,,,,https://fr.wikipedia.org/wiki/A%C3%A9rodrome_de_Plo%C3%ABrmel_-_Loyat,,50,2024-05-15T20:01:46+00:00
28883,LFHH,small_airport,"Vienne Reventin Airfield",45.462434,4.828147,719,EU,France,FR,Auvergne-Rhône-Alpes,FR-ARA,ARA,"Reventin-Vaugris, Isère",0,LFHH,LFHH,,,,https://fr.wikipedia.org/wiki/A%C3%A9rodrome_de_Vienne_-_Reventin,,50,2026-06-04T08:52:40+00:00
28898,LFIK,small_airport,"Aérodrome de Ribérac-Tourette",45.238667,0.264798,351,EU,France,FR,Nouvelle-Aquitaine,FR-NAQ,NAQ,Ribérac,0,LFIK,,,,,https://fr.wikipedia.org/wiki/A%C3%A9rodrome_de_Rib%C3%A9rac-Tourette,,50,2024-05-15T18:57:57+00:00
528785,FR-0722,small_airport,"Channay-Rillé Airfield",47.461034,0.236731,300,EU,France,FR,"Centre-Val de Loire",FR-CVL,CVL,"Rillé, Indre-et-Loire",0,,,,LF3753,https://www.ulm-channay.com,,"Base ULM Channay-Rillé, Base ULM Channay-sur-Lathan",50,2025-01-10T23:28:01+00:00
28816,LFDX,small_airport,"Fumel Montayral Airfield",44.460921,1.006708,692,EU,France,FR,Nouvelle-Aquitaine,FR-NAQ,NAQ,Rochefort,0,LFDX,,,,,https://fr.wikipedia.org/wiki/A%C3%A9rodrome_de_Fumel_-_Montayral,,50,2024-05-15T18:23:54+00:00
28839,LFFD,small_airport,"Saint-André-de-l'Eure Airfield",48.897669,1.250839,489,EU,France,FR,Normandy,FR-NOR,NOR,"Saint-André-de-l'Eure, Eure",0,LFFD,,,,,https://en.wikipedia.org/wiki/Saint-Andr%C3%A9-de-l%27Eure_Airfield,Evreux-Saint-André,50,2025-01-26T20:06:44+00:00
43637,FR-0295,small_airport,"Château de Montmeilleur Airfield",44.793799,5.764096,2789,EU,France,FR,Auvergne-Rhône-Alpes,FR-ARA,ARA,"Saint-Baudille-et-Pipet, Isère",0,LFKK,,,,,,Montmeilleur,50,2025-01-29T20:22:24+00:00
4112,LFHQ,small_airport,"Saint-Flour-Coltines Airfield",45.076401,2.99361,3218,EU,France,FR,Auvergne-Rhône-Alpes,FR-ARA,ARA,Saint-Flour/Coltines,0,LFHQ,,,,https://www.aerodrome-stflour-coltines.fr/,https://fr.wikipedia.org/wiki/A%C3%A9rodrome_de_Saint-Flour_-_Coltines,,50,2024-04-29T18:07:45+00:00
28784,LFAX,small_airport,"Mortagne-au-Perche Airfield",48.539157,0.532043,886,EU,France,FR,Normandy,FR-NOR,NOR,"Saint-Hilaire-le-Châtel, Orne",0,LFAX,LFAX,,,,https://fr.wikipedia.org/wiki/A%C3%A9rodrome_de_Mortagne-au-Perche,,50,2025-10-04T18:09:48+00:00
43644,FR-0302,small_airport,"Saint-Jean-d'Arves Altisurface",45.189711,6.252546,5958,EU,France,FR,Auvergne-Rhône-Alpes,FR-ARA,ARA,"Saint-Jean-d'Arves, Savoie",0,,,,LF7331,,,"LFTU, Praz Sauge et Pré Vernay",50,2024-10-30T15:38:18+00:00
28836,LFEZ,small_airport,"Nancy-Malzéville Airfield",48.7244,6.20778,1253,EU,France,FR,"Grand Est",FR-GES,GES,"Saint-Max, Meurthe-et-Moselle",0,LFEZ,,,,,https://fr.wikipedia.org/wiki/A%C3%A9rodrome_de_Nancy_-_Malz%C3%A9ville,,50,2024-06-26T10:08:42+00:00
43582,FR-0242,small_airport,"Saint-Rémy-de-Maurienne Airfield",45.376718,6.27692,1399,EU,France,FR,Auvergne-Rhône-Alpes,FR-ARA,ARA,"Saint-Rémy-de-Maurienne, Savoie",0,LFKR,,,,,https://fr.wikipedia.org/wiki/A%C3%A9rodrome_de_Saint-R%C3%A9my-de-Maurienne,"Aérodrome de Saint-Rémy-de-Maurienne",50,2024-06-26T10:14:40+00:00
43626,FR-0284,small_airport,"Isola 2000 Altisurface",44.172895,7.16296,7447,EU,France,FR,Provence-Alpes-Côte-d'Azur,FR-PAC,PAC,"Saint-Sauveur-sur-Tinée, Alpes-Maritimes",0,,,,LF0621,,,,50,2025-01-29T21:28:30+00:00
28961,LFOL,small_airport,"L'Aigle-Saint-Michel Airfield",48.758502,0.656632,787,EU,France,FR,Normandy,FR-NOR,NOR,"Saint-Sulpice-sur-Risle, Orne",0,LFOL,,,,,https://fr.wikipedia.org/wiki/A%C3%A9rodrome_de_L%27Aigle_-_Saint-Michel,"Aérodrome de L'Aigle-Saint-Michel",50,2024-10-23T05:35:00+00:00
28997,LFSA,small_airport,"Besançon-Thise Airfield",47.273144,6.082885,807,EU,France,FR,Bourgogne-Franche-Comté,FR-BFC,BFC,Thise,0,LFSA,,,,,http://fr.wikipedia.org/wiki/A%C3%A9rodrome_de_Besan%C3%A7on_-_Thise,,50,2024-06-18T12:10:10+00:00
28831,LFET,small_airport,"Til Châtel Airfield",47.546293,5.210438,938,EU,France,FR,Bourgogne-Franche-Comté,FR-BFC,BFC,Til-Châtel,0,LFET,,,,,https://fr.wikipedia.org/wiki/A%C3%A9rodrome_de_Til-Ch%C3%A2tel,,50,2025-01-30T17:35:26+00:00
4088,LFCW,small_airport,"Villeneuve-sur-Lot Airfield",44.3969,0.758889,190,EU,France,FR,Nouvelle-Aquitaine,FR-NAQ,NAQ,Villeneuve-sur-Lot,0,LFCW,,,,,https://fr.wikipedia.org/wiki/A%C3%A9rodrome_de_Villeneuve-sur-Lot,,50,2024-05-15T17:19:09+00:00
28954,LFNV,small_airport,"Valréas Visan Airfield",44.33574,4.906877,472,EU,France,FR,Provence-Alpes-Côte-d'Azur,FR-PAC,PAC,Visan,0,LFNV,,,,,https://fr.wikipedia.org/wiki/A%C3%A9rodrome_de_Valr%C3%A9as_-_Visan,,50,2024-04-30T13:18:30+00:00
28873,FR-1246,closed,"Thionville Yutz Airport",49.354698,6.20139,518,EU,France,FR,"Grand Est",FR-GES,GES,Yutz,0,,,,,,,LFGV,50,2025-02-25T14:48:53+00:00
356274,FR-0502,small_airport,"Zoufftgen Airfield",49.449166,6.125555,750,EU,France,FR,"Grand Est",FR-GES,GES,Zoufftgen,0,,,,LF5755,https://aeroplume.lu/,,,50,2022-08-20T06:17:33+00:00
43408,FR-0068,heliport,"North Ardennes Intercommunal Hospital Heliport",49.762565,4.697744,579,EU,France,FR,"Grand Est",FR-GES,GES,Charleville-Mézières,0,,,,,,,"Centre Hospitalier Intercommunal Nord-Ardennes, Charleville-Mézières Central Hospital",0,2023-11-04T09:14:48+00:00
43470,FR-0130,heliport,"Coquelles Eurotunnel Heliport",50.91805648803711,1.7949999570846558,31,EU,France,FR,Hauts-de-France,FR-HDF,HDF,Coquelles,0,,,,,,,,0,2009-03-14T19:29:36+00:00
43573,FR-0233,heliport,"Hôtel Royal Heliport",46.39666748046875,6.595555782318115,1540,EU,France,FR,Auvergne-Rhône-Alpes,FR-ARA,ARA,Evian-les-Bains,0,,,,,,,,0,2009-03-14T19:33:31+00:00
513797,FR-0529,heliport,"Île Chambière Heliport",49.131518,6.186375,538,EU,France,FR,"Grand Est",FR-GES,GES,Metz,0,,,,,,,,0,2023-10-31T22:43:13+00:00
514158,FR-0534,heliport,"Metz-Legouest Army Training Hospital Heliport",49.11322,6.18797,568,EU,France,FR,"Grand Est",FR-GES,GES,Metz,0,,,,,,,,0,2023-10-31T22:32:58+00:00
542771,FR-1179,heliport,"Peuplingues DZ",50.911039,1.789623,,EU,France,FR,Hauts-de-France,FR-HDF,HDF,Peuplingues,0,,,,,,,,0,2024-08-20T10:26:52+00:00
43345,FR-0005,heliport,"Sainte Catherine Hospital Heliport",48.745702,7.350851,672,EU,France,FR,"Grand Est",FR-GES,GES,Saverne,0,,,,,,,,0,2023-11-02T11:59:02+00:00
43348,FR-0008,heliport,"New City Hospital Heliport",48.575786,7.740673,540,EU,France,FR,"Grand Est",FR-GES,GES,Strasbourg,0,,,,,,,"NHC, Nouvelle Hôpital Civil",0,2023-10-26T06:08:11+00:00
43574,FR-0234,heliport,"La Daille Heliport",45.45722198486328,6.967778205871582,5912,EU,France,FR,Auvergne-Rhône-Alpes,FR-ARA,ARA,"Val D'Isere",0,,,,,,,,0,2009-03-14T19:33:33+00:00
4075,FR-1237,closed,"Ancien Aérodrome de Brive-La Roche",45.150799,1.469202,379,EU,France,FR,Nouvelle-Aquitaine,FR-NAQ,NAQ,Brive-la-Gaillarde,0,,,,,,https://en.wikipedia.org/wiki/Brive_-_La_Roche_Airport,"BVE, LFBV",1375,2025-02-25T14:38:02+00:00
4068,LFBM,medium_airport,"Mont-de-Marsan (BA 118) Air Base",43.911701,-0.5075,203,EU,France,FR,Nouvelle-Aquitaine,FR-NAQ,NAQ,Mont-de-Marsan,0,LFBM,,,,,https://en.wikipedia.org/wiki/Mont-de-Marsan_Air_Base,,599,2024-04-12T18:49:57+00:00
4239,LFSX,medium_airport,"Luxeuil-Saint-Sauveur (BA 116) Air Base",47.787747,6.353419,913,EU,France,FR,Bourgogne-Franche-Comté,FR-BFC,BFC,Saint-Sauveur,0,LFSX,,,,,https://en.wikipedia.org/wiki/Luxeuil_-_Saint-Sauveur_Air_Base,,500,2024-04-12T18:57:06+00:00
4184,LFPC,medium_airport,"Creil Air Base",49.253502,2.51914,291,EU,France,FR,Hauts-de-France,FR-HDF,HDF,Creil,0,LFPC,LFPC,CSF,,,https://fr.wikipedia.org/wiki/Base_a%C3%A9rienne_110_Creil,"BA 110",375,2024-04-12T17:54:02+00:00
4198,FR-1238,closed,"Cambrai-Épinoy (BA 103) Air Base",50.221802,3.15424,257,EU,France,FR,Hauts-de-France,FR-HDF,HDF,"Épinoy, Pas-de-Calais",0,,,,,,,LFQI,375,2025-02-25T14:38:02+00:00
4227,FR-1239,closed,"Colmar-Meyenheim Air Base",47.922001,7.39967,693,EU,France,FR,"Grand Est",FR-GES,GES,Meyenheim,0,,,,,,https://en.wikipedia.org/wiki/Quartier_Colonel_Dio,"BA 132, LFSC, Base aérienne d'opérations 132 Colmar-Meyenheim, Quartier Colonel Dio",300,2025-02-25T14:38:02+00:00
29028,FR-1266,closed,"Saint-Simon - Clastres Air Base",49.757542,3.21598,295,EU,France,FR,Hauts-de-France,FR-HDF,HDF,"Clastres, Aisne",0,,,,,,https://en.wikipedia.org/wiki/Saint-Simon_%E2%80%93_Clastres_Air_Base,LFYT,250,2025-02-25T14:48:55+00:00
4233,LFSM,medium_airport,"Montbéliard-Courcelles Airfield",47.487,6.79054,1041,EU,France,FR,Bourgogne-Franche-Comté,FR-BFC,BFC,Courcelles-lès-Montbéliard,0,LFSM,,,,,https://en.wikipedia.org/wiki/Montb%C3%A9liard_%E2%80%93_Courcelles_Aerodrome,,250,2024-04-12T19:11:28+00:00
4216,LFRL,medium_airport,"Lanvéoc-Poulmic Air Base",48.2817,-4.44502,287,EU,France,FR,Brittany,FR-BRE,BRE,Lanvéoc/Poulmic,0,LFRL,,,,,https://fr.wikipedia.org/wiki/Base_d%27a%C3%A9ronautique_navale_de_Lanv%C3%A9oc-Poulmic,,250,2024-04-12T19:02:52+00:00
4195,LFQE,medium_airport,"Lieutenant Étienne Mantoux Air Base",49.226898,5.67222,770,EU,France,FR,"Grand Est",FR-GES,GES,Rouvres-en-Woëvre,0,LFQE,,,,,https://en.wikipedia.org/wiki/Base_Lieutenant_%C3%89tienne_Mantoux,"Étain-Rouvres Air Base",250,2024-05-15T08:40:50+00:00
4128,LFKS,medium_airport,"Solenzara (BA 126) Air Base",41.9244,9.406,28,EU,France,FR,Corsica,FR-COR,COR,Solenzara,0,LFKS,LFKS,SOZ,,,https://en.wikipedia.org/wiki/Solenzara_Air_Base,,250,2024-04-07T06:33:06+00:00
339753,LFFO,small_airport,"Beauvoir Fromentine Airfield",46.890422,-2.088475,10,EU,France,FR,Pays-de-la-Loire,FR-PDL,PDL,Fromentine,0,LFFO,LFFO,,,,,,100,2026-06-03T11:45:56+00:00
529032,FR-0945,small_airport,"Jumelles Airfield",47.435556,-0.096667,130,EU,France,FR,Pays-de-la-Loire,FR-PDL,PDL,,0,,,,LF4957,,,,50,2024-05-13T17:17:46+00:00
529228,FR-1064,small_airport,"Courcité Airfield",48.29,-0.259167,787,EU,France,FR,Pays-de-la-Loire,FR-PDL,PDL,,0,,,,LF5325,http://mayenneparamoteur.com/,,,50,2024-05-14T06:42:20+00:00
529033,FR-0946,small_airport,"Andouillé le Tertre picard Airfield",48.177222,-0.850278,410,EU,France,FR,Pays-de-la-Loire,FR-PDL,PDL,,0,,,,LF5321,,,,50,2024-05-13T17:18:18+00:00
529034,FR-0947,small_airport,"La Bazouge de Chemeré Airfield",48.013056,-0.494167,308,EU,France,FR,Pays-de-la-Loire,FR-PDL,PDL,,0,,,,LF5323,https://sites.google.com/view/pegase-ulm,,,50,2024-05-13T17:21:07+00:00
529035,FR-0948,small_airport,"Beausoleil Airfield",47.7775,-0.551111,236,EU,France,FR,Pays-de-la-Loire,FR-PDL,PDL,,0,,,,LF5324,,,,50,2024-05-13T17:21:33+00:00
529039,FR-0952,small_airport,"Saint Philbert de Bouaine Airfield",47.021111,-1.492222,82,EU,France,FR,Pays-de-la-Loire,FR-PDL,PDL,,0,,,,LF8562,,,,50,2024-05-13T17:24:38+00:00
529040,FR-0953,small_airport,"Coëx La Boissière Airfield",46.723611,-1.757778,115,EU,France,FR,Pays-de-la-Loire,FR-PDL,PDL,,0,,,,LF8563,,,,50,2024-05-13T17:25:03+00:00
529041,FR-0954,small_airport,"Mouchamps Airfield",46.808611,-1.030556,330,EU,France,FR,Pays-de-la-Loire,FR-PDL,PDL,,0,,,,LF8566,,,,50,2024-05-13T17:25:29+00:00
529042,FR-0955,small_airport,"la brossette Airfield",46.828333,-1.305556,250,EU,France,FR,Pays-de-la-Loire,FR-PDL,PDL,,0,,,,LF8567,,,,50,2024-05-13T17:25:50+00:00
529043,FR-0956,small_airport,"La Rogerie Airfield",48.311667,-0.535278,420,EU,France,FR,Pays-de-la-Loire,FR-PDL,PDL,,0,,,,LF5322,,,,50,2024-05-13T17:26:13+00:00
529044,FR-0957,small_airport,"Les Ailes de la Morière Airfield",46.626667,-1.743889,164,EU,France,FR,Pays-de-la-Loire,FR-PDL,PDL,,0,,,,LF8570,,,,50,2024-05-13T17:26:49+00:00
529045,FR-0958,small_airport,"Chesnaie ULM Airfield",47.339444,-0.925,320,EU,France,FR,Pays-de-la-Loire,FR-PDL,PDL,,0,,,,LF4958,,,,50,2024-05-13T17:27:10+00:00
529046,FR-0959,small_airport,"Saint Martin des Fontaines Airfield",46.553611,-0.900556,200,EU,France,FR,Pays-de-la-Loire,FR-PDL,PDL,,0,,,,LF8572,,,,50,2024-05-13T17:27:44+00:00
529048,FR-0961,small_airport,"Solib'Ailes Airfield",47.7775,-0.514167,230,EU,France,FR,Pays-de-la-Loire,FR-PDL,PDL,,0,,,,LF4959,https://solib-ailes.com/,,,50,2024-05-13T17:30:34+00:00
529049,FR-0962,small_airport,"St Brévin les Pins Airfield",47.236389,-2.141667,62,EU,France,FR,Pays-de-la-Loire,FR-PDL,PDL,,0,,,,LF4458,,,,50,2024-05-13T17:31:07+00:00
529050,FR-0963,small_airport,"Ambrières-les-Vallées Airfield",48.440556,-0.638889,453,EU,France,FR,Pays-de-la-Loire,FR-PDL,PDL,,0,,,,LF5353,https://mayenne-ulm.sportsregions.fr/,,,50,2024-05-13T17:31:59+00:00
529051,FR-0964,small_airport,"Oisseau Neuville Airfield",48.351111,-0.708889,550,EU,France,FR,Pays-de-la-Loire,FR-PDL,PDL,,0,,,,LF5355,,,,50,2024-05-13T17:32:20+00:00
529074,FR-0987,small_airport,"Saint Laurent sur Sèvre Airfield",46.938056,-0.915556,643,EU,France,FR,Pays-de-la-Loire,FR-PDL,PDL,,0,,,,LF8529,,,,50,2024-05-15T13:41:35+00:00
529075,FR-0988,small_airport,"Breuil Barret Airfield",46.660556,-0.663611,680,EU,France,FR,Pays-de-la-Loire,FR-PDL,PDL,,0,,,,LF8551,,,,50,2024-05-15T13:41:56+00:00
529134,FR-1047,small_airport,"Luçon Airfield",46.424722,-1.193333,11,EU,France,FR,Pays-de-la-Loire,FR-PDL,PDL,,0,,,,LF8528,http://club.ulm.luconnais.free.fr/,,,50,2024-05-15T13:44:26+00:00
529030,FR-0943,small_airport,"Valanjou Airfield",47.224444,-0.568333,262,EU,France,FR,Pays-de-la-Loire,FR-PDL,PDL,,0,,,,LF4955,,,,50,2024-05-13T17:16:54+00:00
342519,FR-0474,small_airport,"Aérodrome de l'Emonière",47.05997,-1.35325,,EU,France,FR,Pays-de-la-Loire,FR-PDL,PDL,,0,,,,,,,,50,2021-03-31T05:44:58+00:00
343347,FR-0478,small_airport,"Aérodrome de Cossé le Vivien",47.97263,-0.91864,,EU,France,FR,Pays-de-la-Loire,FR-PDL,PDL,,0,,,,,,,,50,2021-04-22T05:05:54+00:00
